WKT,latitude,longitude,street,postalcode,city,description
"POINT (5.43077 51.96252)",51.96252,5.43077,Homoetsestraat, 4021 HG, Maurik,https://waarneming.nl/observation/336299181/
"POINT (6.34701 51.9317)",51.93170,6.34701,Korte Huitinkstraat, 7011 BC, Gaanderen,https://waarneming.nl/observation/337451043/
"POINT (5.16492 52.11869)",52.11869,5.16492,Groenekanseweg, 3737 AL, Groenekan,https://waarneming.nl/observation/336327329/
"POINT (5.7623 51.86819)",51.86819,5.76230,Van Heemstraweg, 6641 AC, Beuningen,https://waarneming.nl/observation/336664955/
"POINT (5.8755 51.98921)",51.98921,5.87550,Heijenoordseweg, 6813 GG, Arnhem,https://waarneming.nl/observation/336834096/
"POINT (5.40012 51.9164)",51.91640,5.40012,Jeudestraat, 4011 GM, Zoelen,https://waarneming.nl/observation/336979747/
"POINT (5.93013 51.98361)",51.98361,5.93013,Schavenmolenstraat, 6824 AB, Arnhem,https://waarneming.nl/observation/336947797/
"POINT (5.92288 51.81935)",51.81935,5.92288,Oude Kleefsebaan, 6572 AL, Berg en Dal,https://waarneming.nl/observation/337048349/
"POINT (5.75871 51.97949)",51.97949,5.75871,Aan de Beek, 6866 CV, Heelsum,https://waarneming.nl/observation/337975883/
"POINT (5.17621 52.03262)",52.03262,5.17621,Wernaarspad, 3994 XL, Houten,https://waarneming.nl/observation/338235277/
"POINT (5.83436 51.99579)",51.99579,5.83436,Graaf Ottolaan, 6861 BS, Oosterbeek,https://waarneming.nl/observation/338434164/
"POINT (5.92947 51.98393)",51.98393,5.92947,Schavenmolenstraat, 6824 AB, Arnhem,https://waarneming.nl/observation/338542080/
"POINT (6.6703 51.98476)",51.98476,6.67030,Korenburgerveenweg, 7102 GD, Winterswijk,https://waarneming.nl/observation/338755297/
"POINT (4.96159 51.95277)",51.95277,4.96159,De Tol, 4233 GH, Ameide,https://waarneming.nl/observation/338777778/
"POINT (4.9618 51.95257)",51.95257,4.96180,De Tol, 4233 GH, Ameide,https://waarneming.nl/observation/338784711/
"POINT (5.08424 52.11462)",52.11462,5.08424,Prins Bernhardlaan, 3554 JG, Utrecht,https://waarneming.nl/observation/338884432/
"POINT (5.16578 52.11815)",52.11815,5.16578,Hoogekampse Pad, 3737 AK, Groenekan,https://waarneming.nl/observation/338970133/
"POINT (5.90567 51.83258)",51.83258,5.90567,Jan Dommer van Poldersveldtweg, 6574 AV, Ubbergen,https://waarneming.nl/observation/339174982/
"POINT (5.42974 51.96267)",51.96267,5.42974,Saffatinstraat, 4021 HN, Maurik,https://waarneming.nl/observation/339132782/
"POINT (5.9296 51.98356)",51.98356,5.92960,Schavenmolenstraat, 6824 AA, Arnhem,https://waarneming.nl/observation/339235017/
"POINT (5.74517 51.77085)",51.77085,5.74517,Klokstraatje, 6612 AZ, Nederasselt,https://waarneming.nl/observation/339462027/
"POINT (5.89882 51.83737)",51.83737,5.89882,Ubbergse Holleweg, 6574 AS, Ubbergen,https://waarneming.nl/observation/339418306/
"POINT (5.87523 51.98395)",51.98395,5.87523,Utrechtseweg, 6812 AR, Arnhem,https://waarneming.nl/observation/340356404/
"POINT (4.65101 52.46597)",52.46597,4.65101,Polderweg, 1951 AH, Velsen-Noord,https://waarneming.nl/observation/342407737/
"POINT (5.0234 52.11071)",52.11071,5.02340,Alidahoeve, 3451 TK, Vleuten,https://waarneming.nl/observation/340665231/
"POINT (5.10832 52.12584)",52.12584,5.10832,Maniladreef, 3564 JE, Utrecht,https://waarneming.nl/observation/341815083/
"POINT (5.02438 52.11041)",52.11041,5.02438,Lindehoeve, 3451 TL, Vleuten,https://waarneming.nl/observation/341413074/
"POINT (5.33923 52.13425)",52.13425,5.33923,Utrechtseweg, 3818 ET, Amersfoort,https://waarneming.nl/observation/341690130/
"POINT (5.00817 52.16565)",52.16565,5.00817,Straatweg, 3621 BE, Breukelen,https://waarneming.nl/observation/346124625/
"POINT (5.82772 52.48207)",52.48207,5.82772,Stobbenweg, 8251 RG, Dronten,https://waarneming.nl/observation/342374479/
"POINT (5.06296 52.16975)",52.16975,5.06296,Griendweg, 3612 AS, Tienhoven,https://waarneming.nl/observation/343335117/
"POINT (5.02402 52.11023)",52.11023,5.02402,Lindehoeve, 3451 TL, Vleuten,https://waarneming.nl/observation/343805619/
"POINT (5.84507 52.17119)",52.17119,5.84507,Burelhul, 7348 BA, Apeldoorn,https://waarneming.nl/observation/344108800/
"POINT (5.78744 51.82241)",51.82241,5.78744,Van Rosenburgweg, 6537 TC, Nijmegen,https://waarneming.nl/observation/344935630/
"POINT (5.38888 52.02665)",52.02665,5.38888,Leersumsestraatweg, 3941 ML, Leersum,https://waarneming.nl/observation/344426016/
"POINT (5.24131 52.0535)",52.05350,5.24131,Lindelaar, 3984 AK, Odijk,https://waarneming.nl/observation/344414663/
"POINT (5.6897 52.00222)",52.00222,5.68970,Prins Clauslaan, 6721 AG, Bennekom,https://waarneming.nl/observation/344557374/
"POINT (5.68323 51.97581)",51.97581,5.68323,Geertjesweg, 6704 PD, Wageningen,https://waarneming.nl/observation/344712715/
"POINT (5.25444 52.08622)",52.08622,5.25444,Laantje Zonder Eind, 3701 CD, Zeist,https://waarneming.nl/observation/344798069/
"POINT (5.25551 52.37209)",52.37209,5.25551,Druivenstraat, 1326 JW, Almere,https://waarneming.nl/observation/345007903/
"POINT (5.37768 51.8264)",51.82640,5.37768,Kerkstraat, 4064 EV, Varik,https://waarneming.nl/observation/344919002/
"POINT (6.003 52.21218)",52.21218,6.00300,Gooiland, 7325 ZS, Apeldoorn,https://waarneming.nl/observation/344943843/
"POINT (5.90856 52.03349)",52.03349,5.90856,Koningsweg, 6816 TG, Arnhem,https://waarneming.nl/observation/345015322/
"POINT (5.66575 52.3564)",52.35640,5.66575,Dorpshuisweg, 3849 BL, Hierden,https://waarneming.nl/observation/345184289/
"POINT (5.76152 52.7055)",52.70550,5.76152,Workumstraat, 8304 DN, Emmeloord,https://waarneming.nl/observation/345477399/
"POINT (4.69266 52.30543)",52.30543,4.69266,Beursplein, 2131 CR, Hoofddorp,https://waarneming.nl/observation/346232829/
"POINT (5.78714 51.82255)",51.82255,5.78714,Eijkelboomweg, 6537 TV, Nijmegen,https://waarneming.nl/observation/345835706/
"POINT (6.53076 52.11361)",52.11361,6.53076,Prunusstraat, 7271 HN, Borculo,https://waarneming.nl/observation/345990905/
"POINT (5.85477 51.78579)",51.78579,5.85477,Gladiolenstraat, 6581 XA, Malden,https://waarneming.nl/observation/345833844/
"POINT (5.17626 52.03145)",52.03145,5.17626,Odijkseweg, 3994 AR, Houten,https://waarneming.nl/observation/345879201/
"POINT (5.23888 51.94917)",51.94917,5.23888,van der Duyn van Maasdamstraat, 4102 GB, Culemborg,https://waarneming.nl/observation/346048554/
"POINT (6.0234 51.94978)",51.94978,6.02340,Rijksweg, 6921 AH, De Eng,https://waarneming.nl/observation/346050323/
"POINT (5.80928 51.81171)",51.81171,5.80928,Lankforst, 6538 GS, Nijmegen,https://waarneming.nl/observation/346060084/
"POINT (5.67352 51.96632)",51.96632,5.67352,Nassauweg, 6703 CE, Wageningen,https://waarneming.nl/observation/346109527/
"POINT (5.40415 51.91131)",51.91131,5.40415,Jeudestraat, 4011 GL, Zoelen,https://waarneming.nl/observation/346155658/
"POINT (5.85966 51.96337)",51.96337,5.85966,Hilversumstraat, 6843 DE, Arnhem,https://waarneming.nl/observation/346170212/
"POINT (4.76505 52.25635)",52.25635,4.76505,Dreef, 1431 WC, Aalsmeer,https://waarneming.nl/observation/346190014/
"POINT (5.18326 52.03085)",52.03085,5.18326,Binnenweg, 3994 AN, Houten,https://waarneming.nl/observation/346545803/
"POINT (5.33603 52.00704)",52.00704,5.33603,Wilhelminaweg, 3947 BL, Langbroek,https://waarneming.nl/observation/346530831/
"POINT (5.24948 51.81187)",51.81187,5.24948,Boschstraat, 5301 AG, Zaltbommel,https://waarneming.nl/observation/346504154/
"POINT (5.77449 51.82657)",51.82657,5.77449,Holtgesbroek, 6546 PL, Nijmegen,https://waarneming.nl/observation/346573183/
"POINT (5.91994 51.81808)",51.81808,5.91994,Uilenputweg, 6571 CC, Berg en Dal,https://waarneming.nl/observation/346614438/
"POINT (5.96302 52.18142)",52.18142,5.96302,Malkenschoten, 7333 NL, Apeldoorn,https://waarneming.nl/observation/346687437/
"POINT (4.67201 52.30665)",52.30665,4.67201,Lindholm, 2133 CT, Hoofddorp,https://waarneming.nl/observation/347190377/
"POINT (4.76875 52.26133)",52.26133,4.76875,Mendelstraat, 1431 KL, Aalsmeer,https://waarneming.nl/observation/346824818/
"POINT (4.73213 52.55796)",52.55796,4.73213,Simon Pauwelslaan, 1921 AX, Akersloot,https://waarneming.nl/observation/346857035/
"POINT (5.29345 52.04572)",52.04572,5.29345,Beukenhorst, 3972 HG, Driebergen-Rijsenburg,https://waarneming.nl/observation/346975594/
"POINT (6.3555 52.01297)",52.01297,6.35550,Zandvoortweg, 7021 EE, Zelhem,https://waarneming.nl/observation/347032989/
"POINT (5.4616 52.52353)",52.52353,5.46160,Karveel 37, 8231 BT, Lelystad,https://waarneming.nl/observation/349823416/
"POINT (5.80905 51.95627)",51.95627,5.80905,Berenklauw, 6665 HV, Driel,https://waarneming.nl/observation/347237502/
"POINT (5.74214 51.81041)",51.81041,5.74214,Grootvenseweg, 6603 AP, Alverna,https://waarneming.nl/observation/347376713/
"POINT (5.96594 52.19703)",52.19703,5.96594,Hofveld, 7331 KB, Apeldoorn,https://waarneming.nl/observation/347092788/
"POINT (5.1585 52.35505)",52.35505,5.15850,Minervasingel, 1363 ZJ, Almere,https://waarneming.nl/observation/347138744/
"POINT (5.37327 52.06231)",52.06231,5.37327,De Wingerd, 3951 XK, Maarn,https://waarneming.nl/observation/347196404/
"POINT (6.24542 51.96526)",51.96526,6.24542,Tijmveld, 7006 ST, Doetinchem,https://waarneming.nl/observation/347327375/
"POINT (4.95698 52.09187)",52.09187,4.95698,Indijk, 3481 GE, Harmelen,https://waarneming.nl/observation/347324929/
"POINT (5.18246 52.17525)",52.17525,5.18246,Dennenlaan, 3739 KL, Hollandsche Rading,https://waarneming.nl/observation/348128690/
"POINT (5.00813 52.10543)",52.10543,5.00813,Broederschaplaan, 3451 ZB, Vleuten,https://waarneming.nl/observation/347516864/
"POINT (5.17618 52.03511)",52.03511,5.17618,Kuipersgilde, 3994 CC, Houten,https://waarneming.nl/observation/347620847/
"POINT (5.82986 51.80455)",51.80455,5.82986,Thorbeckestraat, 6535 SK, Nijmegen,https://waarneming.nl/observation/348223908/
"POINT (5.92479 51.95492)",51.95492,5.92479,Keizerstraat, 6834 CR, Arnhem,https://waarneming.nl/observation/347725714/
"POINT (5.12952 52.05797)",52.05797,5.12952,Seychellen, 3524 JB, Utrecht,https://waarneming.nl/observation/347763204/
"POINT (5.22279 52.21981)",52.21981,5.22279,Zandheuvelweg, 3744 NA, Baarn,https://waarneming.nl/observation/347785026/
"POINT (6.34321 52.01109)",52.01109,6.34321,Mimosaweg, 7021 ZN, Zelhem,https://waarneming.nl/observation/347911776/
"POINT (5.09071 52.11377)",52.11377,5.09071,Doctor Max Euwestraat, 3554 EW, Utrecht,https://waarneming.nl/observation/348000264/
"POINT (6.55616 51.90072)",51.90072,6.55616,Klokkemakersweg, 7122 JM, Aalten,https://waarneming.nl/observation/348037882/
"POINT (5.3437 51.95505)",51.95505,5.34370,Lekbandijk, 4023 CA, Rijswijk (GLD),https://waarneming.nl/observation/347981368/
"POINT (5.0134 52.08753)",52.08753,5.01340,Wereldtuinenlaan, 3452 RZ, Vleuten,https://waarneming.nl/observation/348007556/
"POINT (5.89697 51.82571)",51.82571,5.89697,Catharinaweg, 6523 MT, Nijmegen,https://waarneming.nl/observation/348387817/
"POINT (5.38867 52.03354)",52.03354,5.38867,Sparrenlaan, 3941 MN, Doorn,https://waarneming.nl/observation/348089236/
"POINT (5.63724 52.02589)",52.02589,5.63724,Professor Oudpark, 6716 EJ, Ede,https://waarneming.nl/observation/348126438/
"POINT (5.92026 51.89216)",51.89216,5.92026,van der Mondeweg, 6685 BR, Haalderen,https://waarneming.nl/observation/348169931/
"POINT (5.67143 52.04209)",52.04209,5.67143,van Irhovenlaan, 6711 MN, Ede,https://waarneming.nl/observation/348197645/
"POINT (5.04966 51.90901)",51.90901,5.04966,Sekretaris Baxstraat, 4245 KM, Leerbroek,https://waarneming.nl/observation/348215378/
"POINT (6.00617 52.19683)",52.19683,6.00617,Klingmakersdonk, 7326 GE, Apeldoorn,https://waarneming.nl/observation/348344299/
"POINT (6.2928 51.97416)",51.97416,6.29280,Borneostraat, 7009 ES, Doetinchem,https://waarneming.nl/observation/348393610/
"POINT (5.30212 52.34241)",52.34241,5.30212,Spechtlaan, 1343 AL, Almere,https://waarneming.nl/observation/348430934/
"POINT (6.72656 51.9751)",51.97510,6.72656,Kobstederstraat, 7103 ZS, Winterswijk,https://waarneming.nl/observation/348431024/
"POINT (5.46099 52.03009)",52.03009,5.46099,Scherpenzeelseweg, 3956 KD, Leersum,https://waarneming.nl/observation/348433245/
"POINT (6.39985 52.15318)",52.15318,6.39985,Hammarskjöldweg, 7242 HV, Lochem,https://waarneming.nl/observation/354560193/
"POINT (5.96867 51.97939)",51.97939,5.96867,Doorwerthlaan, 6825 EX, Arnhem,https://waarneming.nl/observation/348663254/
"POINT (5.1666 52.21901)",52.21901,5.16660,Taludweg, 1215 AA, Hilversum,https://waarneming.nl/observation/348700780/
"POINT (5.35535 52.03241)",52.03241,5.35535,Postweg, 3941 KA, Doorn,https://waarneming.nl/observation/348901306/
"POINT (5.21662 52.08721)",52.08721,5.21662,Roerdomplaan, 3704 XG, Zeist,https://waarneming.nl/observation/348905129/
"POINT (6.48394 51.87016)",51.87016,6.48394,De Marke, 7091 RB, Dinxperlo,https://waarneming.nl/observation/349155287/
"POINT (6.30497 51.96669)",51.96669,6.30497,Varsseveldseweg, 7002 LJ, Doetinchem,https://waarneming.nl/observation/349202440/
"POINT (5.09221 52.08809)",52.08809,5.09221,Kanaalweg, 3533 HG, Utrecht,https://waarneming.nl/observation/349277989/
"POINT (5.19225 51.88868)",51.88868,5.19225,Prins Willem-Alexandersingel, 4153 BH, Beesd,https://waarneming.nl/observation/349930330/
"POINT (5.74196 51.78325)",51.78325,5.74196,Graafseweg, 6603 CJ, Wijchen,https://waarneming.nl/observation/349545876/
"POINT (5.28779 52.12224)",52.12224,5.28779,Banningstraat, 3769 AA, Soesterberg,https://waarneming.nl/observation/349590618/
"POINT (4.6593 52.33098)",52.33098,4.65930,Drie Merenpad, 2134 TX, Cruquius,https://waarneming.nl/observation/349990732/
"POINT (4.65192 52.33145)",52.33145,4.65192,Spieringweg, 2142 ED, Cruquius,https://waarneming.nl/observation/349486380/
"POINT (5.20725 52.34643)",52.34643,5.20725,Tuingouw, 1352 GZ, Almere,https://waarneming.nl/observation/349526783/
"POINT (6.10729 51.85431)",51.85431,6.10729,de Raai, 6916 DK, Tolkamer,https://waarneming.nl/observation/349555186/
"POINT (5.84754 51.81324)",51.81324,5.84754,Sint Jacobslaan, 6533 VH, Nijmegen,https://waarneming.nl/observation/349882088/
"POINT (6.48148 51.86291)",51.86291,6.48148,Beggelderveldweg, 7091 HM, Dinxperlo,https://waarneming.nl/observation/349843104/
"POINT (5.20673 52.34672)",52.34672,5.20673,Tuingouw, 1352 GZ, Almere,https://waarneming.nl/observation/349669402/
"POINT (5.2231 52.13164)",52.13164,5.22310,Burgemeester Van der Borchlaan, 3722 GZ, Bilthoven,https://waarneming.nl/observation/349778960/
"POINT (5.3028 52.03737)",52.03737,5.30280,Sterkenburgerlaan, 3941 BB, Doorn,https://waarneming.nl/observation/350126424/
"POINT (5.27391 52.06723)",52.06723,5.27391,Olympia, 3971 NK, Driebergen-Rijsenburg,https://waarneming.nl/observation/350043046/
"POINT (5.22915 52.05086)",52.05086,5.22915,De Vork, 3984 PA, Odijk,https://waarneming.nl/observation/349865587/
"POINT (4.60498 52.36531)",52.36531,4.60498,Jaap Buijshof, 2111 TJ, Aerdenhout,https://waarneming.nl/observation/350105497/
"POINT (6.06203 51.92028)",51.92028,6.06203,Heilige Huisjes, 6905 AB, Oud-Zevenaar,https://waarneming.nl/observation/350043758/
"POINT (5.48844 52.43436)",52.43436,5.48844,Eendenweg, 8218 NC, Lelystad,https://waarneming.nl/observation/350237113/
"POINT (6.56781 51.90615)",51.90615,6.56781,Dinxperlosestraatweg, 7122 JG, Aalten,https://waarneming.nl/observation/350344078/
"POINT (4.88004 52.60129)",52.60129,4.88004,Westeinde, 1636 VG, Schermerhorn,https://waarneming.nl/observation/350390773/
"POINT (5.4312 52.13969)",52.13969,5.43120,Nabbert, 3831 PK, Leusden,https://waarneming.nl/observation/350409664/
"POINT (6.24179 52.15837)",52.15837,6.24179,Molendijk, 7211 MB, Eefde,https://waarneming.nl/observation/350477158/
"POINT (5.74123 51.78476)",51.78476,5.74123,Woordsestraat, 6603 LG, Wijchen,https://waarneming.nl/observation/350566793/
"POINT (5.15309 52.21867)",52.21867,5.15309,Wezellaan, 1216 CZ, Hilversum,https://waarneming.nl/observation/350660375/
"POINT (4.63033 52.454)",52.45400,4.63033,Eksterlaan, 1971 KS, IJmuiden,https://waarneming.nl/observation/350607838/
"POINT (5.30689 52.40851)",52.40851,5.30689,Tiarastraat, 1336 SG, Almere,https://waarneming.nl/observation/350682980/
"POINT (5.22178 52.17883)",52.17883,5.22178,Koudelaan, 3749 AM, Lage Vuursche,https://waarneming.nl/observation/350722700/
"POINT (5.36392 52.14171)",52.14171,5.36392,Doctor Jan Pieter Heijelaan, 3818 GT, Amersfoort,https://waarneming.nl/observation/350939877/
"POINT (6.59241 51.91979)",51.91979,6.59241,Slaadreef, 7121 JG, Aalten,https://waarneming.nl/observation/350968165/
"POINT (4.62838 52.41284)",52.41284,4.62838,Kluijskenslaan, 2082 GT, Santpoort-Zuid,https://waarneming.nl/observation/351052385/
"POINT (5.2996 52.20045)",52.20045,5.29960,Koekoeksbloemlaan, 3742 EK, Baarn,https://waarneming.nl/observation/351176039/
"POINT (5.98462 52.3558)",52.35580,5.98462,Midachten, 8162 CJ, Epe,https://waarneming.nl/observation/351149738/
"POINT (5.25234 52.0979)",52.09790,5.25234,Valckenboschlaan, 3707 CS, Zeist,https://waarneming.nl/observation/351169796/
"POINT (4.61518 52.26233)",52.26233,4.61518,Polanen, 2151 DP, Nieuw-Vennep,https://waarneming.nl/observation/351190206/
"POINT (4.61595 52.26216)",52.26216,4.61595,Polanen, 2151 DR, Nieuw-Vennep,https://waarneming.nl/observation/351186842/
"POINT (5.42997 52.01752)",52.01752,5.42997,Gezichtslaan, 3956 BB, Leersum,https://waarneming.nl/observation/351221818/
"POINT (6.01328 52.22009)",52.22009,6.01328,De Rozenhaag, 7325 EW, Apeldoorn,https://waarneming.nl/observation/351402960/
"POINT (4.93235 52.36386)",52.36386,4.93235,Javastraat, 1094 HL, Amsterdam,https://waarneming.nl/observation/351416910/
"POINT (5.58594 52.14682)",52.14682,5.58594,Mettenbrincklaan, 3771 HX, Barneveld,https://waarneming.nl/observation/351411985/
"POINT (6.61885 51.93106)",51.93106,6.61885,Stationsweg, 7121 LH, Aalten,https://waarneming.nl/observation/351591728/
"POINT (5.19973 52.20902)",52.20902,5.19973,Arubalaan, 1213 VE, Hilversum,https://waarneming.nl/observation/351624400/
"POINT (5.69999 52.02079)",52.02079,5.69999,Horalaan, 6721 KM, Bennekom,https://waarneming.nl/observation/351663855/
"POINT (5.76798 51.85853)",51.85853,5.76798,Hazelhoenhof, 6641 XA, Beuningen,https://waarneming.nl/observation/351660992/
"POINT (5.65782 52.02763)",52.02763,5.65782,Nijverheidlaan, 6717 EV, Ede,https://waarneming.nl/observation/351712803/
"POINT (5.43492 52.08185)",52.08185,5.43492,Beukenlaan, 3931 ZR, Woudenberg,https://waarneming.nl/observation/351821107/
"POINT (5.72001 51.816)",51.81600,5.72001,Heilige Stoel, 6601 VM, Wijchen,https://waarneming.nl/observation/351996437/
"POINT (5.32823 52.32444)",52.32444,5.32823,Oeverwalhof, 1349 JE, Almere,https://waarneming.nl/observation/360116194/
"POINT (6.08149 52.03119)",52.03119,6.08149,Schaterland, 6955 AB, Ellecom,https://waarneming.nl/observation/352661106/
"POINT (5.24196 51.80586)",51.80586,5.24196,Vergtweg, 5301 TH, Zaltbommel,https://waarneming.nl/observation/356639803/
"POINT (5.29777 52.18363)",52.18363,5.29777,Prins Bernhardlaan, 3761 AA, Soest,https://waarneming.nl/observation/353055080/
"POINT (5.36763 52.1971)",52.19710,5.36763,Zoetegaarde, 3824 AR, Amersfoort,https://waarneming.nl/observation/353169919/
"POINT (5.66134 52.28961)",52.28961,5.66134,Drieërweg, 3852 MA, Ermelo,https://waarneming.nl/observation/353172820/
"POINT (5.04846 52.24913)",52.24913,5.04846,Wilgenlaan, 1394 JS, Nederhorst den Berg,https://waarneming.nl/observation/353247154/
"POINT (5.10602 51.88365)",51.88365,5.10602,Beukenlaan, 4147 GR, Asperen,https://waarneming.nl/observation/353693897/
"POINT (4.99538 52.09157)",52.09157,4.99538,Presidentperenlaan, 3452 ET, Vleuten,https://waarneming.nl/observation/354074842/
"POINT (5.19064 52.01243)",52.01243,5.19064,Fluweelmos, 3994 KS, Houten,https://waarneming.nl/observation/353636269/
"POINT (5.79248 52.37964)",52.37964,5.79248,Beukenlaan, 8072 DH, Nunspeet,https://waarneming.nl/observation/353676446/
"POINT (4.71088 52.30501)",52.30501,4.71088,Hendrik Andriessenlaan, 2132 KG, Hoofddorp,https://waarneming.nl/observation/354242614/
"POINT (5.21494 52.29247)",52.29247,5.21494,Nieuwe Bussummerweg, 1272 CL, Huizen,https://waarneming.nl/observation/354112320/
"POINT (5.05549 52.02834)",52.02834,5.05549,Omloop Oost, 3402 ZT, IJsselstein,https://waarneming.nl/observation/354196970/
"POINT (5.43775 52.2722)",52.27220,5.43775,Wielseweg, 3896 MB, Zeewolde,https://waarneming.nl/observation/354391750/
"POINT (6.26032 51.95616)",51.95616,6.26032,Sambredal, 7007 HS, Doetinchem,https://waarneming.nl/observation/354565404/
"POINT (5.83775 51.82754)",51.82754,5.83775,Slotemaker de Bruïneweg, 6532 AD, Nijmegen,https://waarneming.nl/observation/354646864/
"POINT (5.22556 52.2193)",52.21930,5.22556,Zandheuvelweg, 3744 NA, Baarn,https://waarneming.nl/observation/354645745/
"POINT (5.80871 51.79787)",51.79787,5.80871,Weezenhof, 6536 HC, Nijmegen,https://waarneming.nl/observation/354927816/
"POINT (5.52321 52.02832)",52.02832,5.52321,Jan Campertweg, 3906 XJ, Veenendaal,https://waarneming.nl/observation/354996263/
"POINT (5.5229 52.22021)",52.22021,5.52290,Bloemendaalseweg, 3862 RN, Nijkerk,https://waarneming.nl/observation/355027267/
"POINT (5.60605 52.19218)",52.19218,5.60605,Vincent van Goghstraat, 3781 XN, Voorthuizen,https://waarneming.nl/observation/355170459/
"POINT (5.3819 52.01625)",52.01625,5.38190,Broekweg, 3956 NE, Leersum,https://waarneming.nl/observation/357679493/
"POINT (5.71519 51.9742)",51.97420,5.71519,Kortenburg, 6704 AV, Wageningen,https://waarneming.nl/observation/355516850/
"POINT (5.68747 51.9987)",51.99870,5.68747,Bosmeesterskamp, 6721 AJ, Bennekom,https://waarneming.nl/observation/356127982/
"POINT (5.77909 52.37518)",52.37518,5.77909,Rode-Kruislaan, 8071 GL, Nunspeet,https://waarneming.nl/observation/355679629/
"POINT (5.31884 52.05474)",52.05474,5.31884,Hydeparklaan, 3941 ZK, Doorn,https://waarneming.nl/observation/355750626/
"POINT (5.19037 52.21914)",52.21914,5.19037,Oude Amersfoortseweg, 1212 AA, Hilversum,https://waarneming.nl/observation/355812254/
"POINT (4.94992 52.05485)",52.05485,4.94992,Mastwijkerdijk, 3417 BP, Montfoort,https://waarneming.nl/observation/355833477/
"POINT (6.39261 51.88231)",51.88231,6.39261,Bosweg, 7083 AA, Voorst,https://waarneming.nl/observation/355932674/
"POINT (6.12962 51.93709)",51.93709,6.12962,Schoolstraat, 6942 AK, Didam,https://waarneming.nl/observation/356161113/
"POINT (6.71261 51.97234)",51.97234,6.71261,Anemoonstraat, 7101 EC, Winterswijk,https://waarneming.nl/observation/356235310/
"POINT (5.26525 52.05293)",52.05293,5.26525,Fuut, 3972 RD, Driebergen-Rijsenburg,https://waarneming.nl/observation/356430650/
"POINT (5.83681 51.9922)",51.99220,5.83681,Christiaan de Wetstraat, 6861 DL, Oosterbeek,https://waarneming.nl/observation/356729442/
"POINT (6.45167 52.08947)",52.08947,6.45167,Wilhelminalaan, 7261 BP, Ruurlo,https://waarneming.nl/observation/356631248/
"POINT (5.69808 51.98981)",51.98981,5.69808,Otterlaan, 6705 CJ, Wageningen-Hoog,https://waarneming.nl/observation/356674422/
"POINT (6.2532 51.877)",51.87700,6.25320,Krokusstraat, 7041 DW, 's-Heerenberg,https://waarneming.nl/observation/356753819/
"POINT (5.95178 51.7532)",51.75320,5.95178,Bredeweg, 6562 DJ, Breedeweg,https://waarneming.nl/observation/356681993/
"POINT (5.28843 52.18088)",52.18088,5.28843,Waldeck Pyrmontlaan, 3762 CM, Soest,https://waarneming.nl/observation/357082208/
"POINT (6.46728 51.94429)",51.94429,6.46728,Gasthuisweg, 7051 DS, Varsseveld,https://waarneming.nl/observation/357117932/
"POINT (6.22858 52.12613)",52.12613,6.22858,Ien Dalessingel, 7207 LK, Zutphen,https://waarneming.nl/observation/357572674/
"POINT (4.9902 52.32202)",52.32202,4.99020,Provincialeweg, 1104 GG, Amsterdam,https://waarneming.nl/observation/357185003/
"POINT (5.54251 52.03192)",52.03192,5.54251,Ebbenhorst, 3905 VB, Veenendaal,https://waarneming.nl/observation/357646330/
"POINT (5.89657 51.98615)",51.98615,5.89657,Beaulieustraat, 6814 DV, Arnhem,https://waarneming.nl/observation/357344125/
"POINT (6.60475 52.0378)",52.03780,6.60475,Spillendraaier, 7141 PP, Groenlo,https://waarneming.nl/observation/357355612/
"POINT (4.96588 52.08535)",52.08535,4.96588,Dammolen, 3481 AN, Harmelen,https://waarneming.nl/observation/357631206/
"POINT (5.09386 52.10511)",52.10511,5.09386,Groen van Prinstererstraat, 3551 XD, Utrecht,https://waarneming.nl/observation/357492100/
"POINT (5.42551 52.01102)",52.01102,5.42551,Burgemeester Goudsmitlaan, 3956 GV, Leersum,https://waarneming.nl/observation/357538683/
"POINT (5.98157 52.22304)",52.22304,5.98157,Sluisoordlaan, 7322 DR, Apeldoorn,https://waarneming.nl/observation/357755217/
"POINT (4.84814 52.37729)",52.37729,4.84814,Buskenblaserstraat, 1055 AJ, Amsterdam,https://waarneming.nl/observation/357686147/
"POINT (5.98222 52.22304)",52.22304,5.98222,Ratelaar, 7322 GR, Apeldoorn,https://waarneming.nl/observation/357701153/
"POINT (5.06874 52.13165)",52.13165,5.06874,Kerkhoflaantje, 3611 AG, Oud Zuilen,https://waarneming.nl/observation/358337374/
"POINT (4.9588 52.51855)",52.51855,4.95880,Reigerpark, 1444 AA, Purmerend,https://waarneming.nl/observation/358112805/
"POINT (4.67674 52.30227)",52.30227,4.67674,Asserweg, 2131 VW, Hoofddorp,https://waarneming.nl/observation/358759955/
"POINT (5.30413 52.05478)",52.05478,5.30413,Arnhemsebovenweg, 3971 MJ, Driebergen-Rijsenburg,https://waarneming.nl/observation/358308835/
"POINT (6.23405 52.09738)",52.09738,6.23405,,7233 SG, Vierakker,https://waarneming.nl/observation/358322471/
"POINT (6.66093 52.09793)",52.09793,6.66093,Ketterinkbraak, 7152 JD, Eibergen,https://waarneming.nl/observation/358360193/
"POINT (5.48565 52.1854)",52.18540,5.48565,Klaarwaterweg, 3864 MP, Nijkerkerveen,https://waarneming.nl/observation/358413675/
"POINT (4.8698 52.03038)",52.03038,4.86980,Twijnen, 3421 JP, Oudewater,https://waarneming.nl/observation/358445143/
"POINT (5.13036 51.82516)",51.82516,5.13036,Achterweg, 4171 BA, Herwijnen,https://waarneming.nl/observation/358578264/
"POINT (5.49703 52.13703)",52.13703,5.49703,Jan van Arkelweg, 3791 AC, Achterveld,https://waarneming.nl/observation/358599578/
"POINT (5.67278 52.03414)",52.03414,5.67278,Dennenlaan, 6711 RB, Ede,https://waarneming.nl/observation/359466897/
"POINT (6.31137 51.972)",51.97200,6.31137,Eduard Schilderinkstraat, 7002 JJ, Doetinchem,https://waarneming.nl/observation/358610107/
"POINT (5.13529 51.77999)",51.77999,5.13529,Waterviolier, 5308 LR, Aalst,https://waarneming.nl/observation/358667907/
"POINT (5.66742 52.03458)",52.03458,5.66742,Heideoordlaan, 6711 NR, Ede,https://waarneming.nl/observation/358834603/
"POINT (5.41172 51.88749)",51.88749,5.41172,Mozartstraat, 4003 LC, Tiel,https://waarneming.nl/observation/358884356/
"POINT (6.3034 52.08246)",52.08246,6.30340,Lankampweg, 7251 PM, Vorden,https://waarneming.nl/observation/358879270/
"POINT (4.99349 51.91614)",51.91614,4.99349,Dokter L.J. Bastiaansweg, 4231 EB, Meerkerk,https://waarneming.nl/observation/358907331/
"POINT (5.88811 51.98855)",51.98855,5.88811,Veluwestraat, 6813 EE, Arnhem,https://waarneming.nl/observation/358947043/
"POINT (5.18363 52.01816)",52.01816,5.18363,Anemonentuin, 3994 PN, Houten,https://waarneming.nl/observation/358956695/
"POINT (5.83009 52.48565)",52.48565,5.83009,Stobbenweg, 8251 PX, Dronten,https://waarneming.nl/observation/359142317/
"POINT (4.95855 51.9706)",51.97060,4.95855,Zuiderparklaan, 3411 ML, Lopik,https://waarneming.nl/observation/359184241/
"POINT (4.77087 52.23952)",52.23952,4.77087,Hoofdweg, 1424 PC, Kudelstaart,https://waarneming.nl/observation/359320961/
"POINT (6.4199 52.15328)",52.15328,6.41990,Johan van Oldenbarneveltlaan, 7241 HP, Lochem,https://waarneming.nl/observation/359276192/
"POINT (5.72207 51.97296)",51.97296,5.72207,Grunsfoortseweg, 6871 CE, Renkum,https://waarneming.nl/observation/359327833/
"POINT (5.17274 52.23126)",52.23126,5.17274,Graaf Florislaan, 1217 KL, Hilversum,https://waarneming.nl/observation/359293299/
"POINT (5.81645 51.8298)",51.82980,5.81645,Citerstraat, 6544 WJ, Nijmegen,https://waarneming.nl/observation/359432261/
"POINT (5.40029 52.16079)",52.16079,5.40029,Balboastraat, 3814 WR, Amersfoort,https://waarneming.nl/observation/359720298/
"POINT (5.78912 51.81566)",51.81566,5.78912,Tolhuis, 6537 NN, Nijmegen,https://waarneming.nl/observation/359817799/
"POINT (5.75716 51.97953)",51.97953,5.75716,Kastanjelaan, 6866 CT, Heelsum,https://waarneming.nl/observation/359812084/
"POINT (5.42467 52.13675)",52.13675,5.42467,Wiggeruslaan, 3833 BD, Leusden,https://waarneming.nl/observation/359870673/
"POINT (6.43074 52.1568)",52.15680,6.43074,Stiggoor, 7241 LD, Lochem,https://waarneming.nl/observation/360008410/
"POINT (6.10384 52.05511)",52.05511,6.10384,Doctor Wibautstraat, 6951 GH, Dieren,https://waarneming.nl/observation/360012667/
"POINT (5.5893 51.97222)",51.97222,5.58930,Cuneraweg, 3911 RH, Rhenen,https://waarneming.nl/observation/359888895/
"POINT (5.18982 52.12328)",52.12328,5.18982,Snippenlaan, 3721 DR, Bilthoven,https://waarneming.nl/observation/361345484/
"POINT (5.7279 51.83979)",51.83979,5.72790,Ficarystraat, 6641 KP, Beuningen,https://waarneming.nl/observation/360316903/
"POINT (5.2517 52.12051)",52.12051,5.25170,Ruysdaellaan, 3712 AS, Huis ter Heide,https://waarneming.nl/observation/360149519/
"POINT (5.29801 52.20752)",52.20752,5.29801,Piet Heinlaan, 3742 AN, Baarn,https://waarneming.nl/observation/360174899/
"POINT (5.25158 52.12029)",52.12029,5.25158,Ruysdaellaan, 3712 AS, Huis ter Heide,https://waarneming.nl/observation/360158231/
"POINT (5.67746 52.00575)",52.00575,5.67746,Heidelaan, 6721 CK, Bennekom,https://waarneming.nl/observation/360200640/
"POINT (5.9491 51.83578)",51.83578,5.94910,Thornsestraat, 6575 JH, Persingen,https://waarneming.nl/observation/360386722/
"POINT (5.28257 52.21443)",52.21443,5.28257,Eemnesserweg, 3743 AG, Baarn,https://waarneming.nl/observation/360531134/
"POINT (5.18418 52.21828)",52.21828,5.18418,Sophialaan, 1213 XM, Hilversum,https://waarneming.nl/observation/360423648/
"POINT (5.74407 52.72286)",52.72286,5.74407,Espelerlaan, 8302 DC, Emmeloord,https://waarneming.nl/observation/360635004/
"POINT (5.38575 52.01925)",52.01925,5.38575,Darthuizerweg, 3956 NK, Leersum,https://waarneming.nl/observation/360506895/
"POINT (5.37515 52.25602)",52.25602,5.37515,Groen van Prinsterersingel, 3752 DD, Bunschoten-Spakenburg,https://waarneming.nl/observation/360515035/
"POINT (4.59673 52.35648)",52.35648,4.59673,Boekenroodeweg, 2111 HJ, Aerdenhout,https://waarneming.nl/observation/360682718/
"POINT (5.25502 52.06499)",52.06499,5.25502,Odijkerweg, 3709 JJ, Zeist,https://waarneming.nl/observation/360698970/
"POINT (5.22044 52.09449)",52.09449,5.22044,Utrechtseweg, 3704 HK, Zeist,https://waarneming.nl/observation/360871827/
"POINT (5.29225 52.05501)",52.05501,5.29225,Cordesstraat, 3971 VK, Driebergen-Rijsenburg,https://waarneming.nl/observation/360986515/
"POINT (5.12941 52.10941)",52.10941,5.12941,Burgemeester van der Voort van Zijplaan, 3571 VZ, Utrecht,https://waarneming.nl/observation/360996531/
"POINT (5.17512 52.11259)",52.11259,5.17512,Alfred Nobellaan, 3731 DX, De Bilt,https://waarneming.nl/observation/361121518/
"POINT (6.03423 51.89023)",51.89023,6.03423,Rijnstraat, 6911 AC, Pannerden,https://waarneming.nl/observation/361019754/
"POINT (6.14714 51.90397)",51.90397,6.14714,Kwartiersedijk, 6909 DJ, Babberich,https://waarneming.nl/observation/361030283/
"POINT (6.65539 52.05456)",52.05456,6.65539,Boksveenweg, 7142 JC, Groenlo,https://waarneming.nl/observation/361083518/
"POINT (6.49185 51.86972)",51.86972,6.49185,Veldmate, 7091 RS, Dinxperlo,https://waarneming.nl/observation/361150124/
"POINT (5.29281 52.05534)",52.05534,5.29281,van Wassenaerstraat, 3971 VL, Driebergen-Rijsenburg,https://waarneming.nl/observation/361145463/
"POINT (5.0568 52.0965)",52.09650,5.05680,Kolibrievlinder, 3544 ZE, Utrecht,https://waarneming.nl/observation/361266752/
"POINT (4.59968 52.33405)",52.33405,4.59968,Linnaeuspad, 2105 MP, Heemstede,https://waarneming.nl/observation/361509687/
"POINT (5.66367 52.32083)",52.32083,5.66367,Sonnevancklaan, 3847 LC, Harderwijk,https://waarneming.nl/observation/361335103/
"POINT (5.60815 51.89082)",51.89082,5.60815,Kasteelhof, 6651 VA, Druten,https://waarneming.nl/observation/361494344/
"POINT (5.23284 52.05642)",52.05642,5.23284,Penningkruid, 3984 BK, Odijk,https://waarneming.nl/observation/361371270/
"POINT (5.20308 52.15253)",52.15253,5.20308,Professor Bronkhorstlaan, 3723 MA, Bilthoven,https://waarneming.nl/observation/361374255/
"POINT (5.78943 51.81581)",51.81581,5.78943,Tolhuis, 6537 NN, Nijmegen,https://waarneming.nl/observation/361448105/
"POINT (5.22855 51.94845)",51.94845,5.22855,Frederik van Eedenlaan, 4103 WB, Culemborg,https://waarneming.nl/observation/361700881/
"POINT (6.23736 52.12633)",52.12633,6.23736,De Bloementuin, 7207 MN, Zutphen,https://waarneming.nl/observation/361521658/
"POINT (5.31708 52.07679)",52.07679,5.31708,Waterlooweg, 3711 BD, Austerlitz,https://waarneming.nl/observation/361600209/
"POINT (5.7139 51.806)",51.80600,5.71390,Aalsburg, 6602 VK, Wijchen,https://waarneming.nl/observation/361632632/
"POINT (5.40281 52.26034)",52.26034,5.40281,Slingerweg, 3896 LD, Zeewolde,https://waarneming.nl/observation/361570044/
"POINT (6.62356 52.13772)",52.13772,6.62356,Henry Dunantweg, 7161 WE, Neede,https://waarneming.nl/observation/361670254/
"POINT (5.23594 52.13787)",52.13787,5.23594,Dassenlaan, 3734 HB, Den Dolder,https://waarneming.nl/observation/361634069/
"POINT (5.79427 51.98165)",51.98165,5.79427,Beethovenlaan, 6865 EC, Doorwerth,https://waarneming.nl/observation/361727007/
"POINT (5.2215 52.17674)",52.17674,5.22150,Vuurse Steeg, 3749 AN, Lage Vuursche,https://waarneming.nl/observation/361696322/
"POINT (4.93922 51.97485)",51.97485,4.93922,Wielsekade, 3411 AB, Lopik,https://waarneming.nl/observation/361698606/
"POINT (4.93997 51.975)",51.97500,4.93997,Mondriaanlaan, 3411 GX, Lopik,https://waarneming.nl/observation/361697566/
"POINT (5.93183 52.20743)",52.20743,5.93183,Asselsestraat, 7312 CZ, Apeldoorn,https://waarneming.nl/observation/361718370/
"POINT (5.76983 51.98391)",51.98391,5.76983,de Kamp, 6866 ND, Heelsum,https://waarneming.nl/observation/361777712/
"POINT (5.82139 51.83852)",51.83852,5.82139,Kerkstraat, 6543 KS, Nijmegen,https://waarneming.nl/observation/361794100/
"POINT (5.43612 52.01144)",52.01144,5.43612,Englaan, 3956 VN, Leersum,https://waarneming.nl/observation/361996259/
"POINT (6.37798 52.02501)",52.02501,6.37798,Ruurloseweg, 7021 HB, Zelhem,https://waarneming.nl/observation/362045946/
"POINT (5.21413 52.09499)",52.09499,5.21413,Kroostweg-Noord, 3704 DX, Zeist,https://waarneming.nl/observation/362065120/
"POINT (5.63302 52.05214)",52.05214,5.63302,Mauvezand, 6718 ML, Ede,https://waarneming.nl/observation/362074024/
"POINT (5.03108 52.02357)",52.02357,5.03108,Hovenierlaan, 3401 GC, IJsselstein,https://waarneming.nl/observation/362078948/
"POINT (5.70444 51.9232)",51.92320,5.70444,Velddwarsstraat, 6671 MA, Zetten,https://waarneming.nl/observation/362272211/
"POINT (5.27246 52.06124)",52.06124,5.27246,Loolaan, 3971 PN, Driebergen-Rijsenburg,https://waarneming.nl/observation/362398447/
"POINT (4.95053 52.49536)",52.49536,4.95053,Pinksterbloem, 1441 RM, Purmerend,https://waarneming.nl/observation/362377105/
"POINT (5.27792 52.05623)",52.05623,5.27792,Diederichslaan, 3971 PC, Driebergen-Rijsenburg,https://waarneming.nl/observation/362384354/
"POINT (5.41767 52.02498)",52.02498,5.41767,Maarsbergseweg, 3956 KT, Leersum,https://waarneming.nl/observation/362587660/
"POINT (6.0784 51.9337)",51.93370,6.07840,Rozenstraat, 6901 HT, Zevenaar,https://waarneming.nl/observation/362504791/
"POINT (5.21301 51.94426)",51.94426,5.21301,Wethouder Schoutenweg, 4105 DZ, Culemborg,https://waarneming.nl/observation/362585429/
"POINT (5.84084 51.81919)",51.81919,5.84084,Vossenlaan, 6532 BK, Nijmegen,https://waarneming.nl/observation/362589748/
"POINT (5.68345 51.83357)",51.83357,5.68345,Loffertweg, 6616 AV, Hernen,https://waarneming.nl/observation/362597814/
"POINT (6.73116 51.96993)",51.96993,6.73116,Beuzenes, 7101 VZ, Winterswijk,https://waarneming.nl/observation/362660623/
"POINT (5.83893 51.83002)",51.83002,5.83893,Dukaatstraat, 6532 RE, Nijmegen,https://waarneming.nl/observation/362670691/
"POINT (6.1446 52.21391)",52.21391,6.14460,Lathmerweg, 7384 AD, Wilp,https://waarneming.nl/observation/362767076/
"POINT (4.89441 52.08541)",52.08541,4.89441,Spoorlaan, 3445 AA, Woerden,https://waarneming.nl/observation/362872860/
"POINT (5.42524 52.00937)",52.00937,5.42524,Vijverlaan, 3956 EG, Leersum,https://waarneming.nl/observation/362944174/
"POINT (5.79482 51.9766)",51.97660,5.79482,W.A. Scholtenlaan, 6865 VZ, Doorwerth,https://waarneming.nl/observation/362850398/
"POINT (5.19444 52.22931)",52.22931,5.19444,Kapteynstraat, 1223 CD, Hilversum,https://waarneming.nl/observation/362909389/
"POINT (4.90324 52.08943)",52.08943,4.90324,Doctor Colijnlaan, 3445 VL, Woerden,https://waarneming.nl/observation/363103252/
"POINT (5.72383 52.71343)",52.71343,5.72383,Driesprong, 8303 KV, Emmeloord,https://waarneming.nl/observation/363104218/
"POINT (5.89055 51.81681)",51.81681,5.89055,Monseigneur Suyslaan, 6564 BV, Heilig Landstichting,https://waarneming.nl/observation/363111422/
"POINT (5.07698 52.50423)",52.50423,5.07698,Henegouwen, 1131 RA, Volendam,https://waarneming.nl/observation/363307233/
"POINT (5.46803 52.52947)",52.52947,5.46803,Karveel 40, 8231 DK, Lelystad,https://waarneming.nl/observation/363252890/
"POINT (5.29933 52.21074)",52.21074,5.29933,Tromplaan, 3742 AD, Baarn,https://waarneming.nl/observation/363255786/
"POINT (5.2041 52.06621)",52.06621,5.20410,Barbarapad, 3981 AD, Bunnik,https://waarneming.nl/observation/363306578/
"POINT (5.92134 51.82569)",51.82569,5.92134,Nieuwe Holleweg, 6573 DX, Beek,https://waarneming.nl/observation/367206423/
"POINT (5.2667 52.18048)",52.18048,5.26670,Nieuwegracht, 3763 LB, Soest,https://waarneming.nl/observation/363420900/
"POINT (4.90845 52.09154)",52.09154,4.90845,Talma-lanen, 3445 TJ, Woerden,https://waarneming.nl/observation/368215298/
"POINT (4.86652 52.09218)",52.09218,4.86652,Paul Gabriëlstraat, 3443 HW, Woerden,https://waarneming.nl/observation/364046001/
"POINT (6.29321 52.07755)",52.07755,6.29321,Nieuwenhuisweg, 7251 PR, Vorden,https://waarneming.nl/observation/363674818/
"POINT (4.56092 52.36363)",52.36363,4.56092,Doktersdrift, 2042 XL, Zandvoort,https://waarneming.nl/observation/363659316/
"POINT (4.55967 52.36312)",52.36312,4.55967,Doktersdrift, 2042 XL, Zandvoort,https://waarneming.nl/observation/363659992/
"POINT (5.03009 52.09388)",52.09388,5.03009,Alendorperweg, 3451 GN, Vleuten,https://waarneming.nl/observation/363533557/
"POINT (4.94454 52.04845)",52.04845,4.94454,Doeldijk, 3417 XD, Montfoort,https://waarneming.nl/observation/363901487/
"POINT (4.94419 52.04887)",52.04887,4.94419,Lindeboomsweg, 3417 XG, Montfoort,https://waarneming.nl/observation/363901484/
"POINT (5.67682 51.99412)",51.99412,5.67682,Bovenweg, 6721 HX, Bennekom,https://waarneming.nl/observation/363606871/
"POINT (5.85258 51.98746)",51.98746,5.85258,Reuvensweg, 6861 XH, Oosterbeek,https://waarneming.nl/observation/363812521/
"POINT (5.12706 52.06153)",52.06153,5.12706,Olympus, 3524 WB, Utrecht,https://waarneming.nl/observation/363831206/
"POINT (6.23732 52.14322)",52.14322,6.23732,Boslaan, 7231 DG, Warnsveld,https://waarneming.nl/observation/363839332/
"POINT (5.71919 51.8117)",51.81170,5.71919,Homberg, 6601 ZV, Wijchen,https://waarneming.nl/observation/363894136/
"POINT (5.62258 52.35716)",52.35716,5.62258,Waterstadboulevard, 3846 JN, Harderwijk,https://waarneming.nl/observation/364048368/
"POINT (5.42724 52.01926)",52.01926,5.42724,Groenoordlaan, 3956 BA, Leersum,https://waarneming.nl/observation/363959155/
"POINT (6.08643 51.89344)",51.89344,6.08643,Schoolstraat, 6913 AD, Aerdt,https://waarneming.nl/observation/364171938/
"POINT (6.13507 51.93067)",51.93067,6.13507,,6942 GH, Nieuw-Dijk,https://waarneming.nl/observation/364171951/
"POINT (5.62337 52.35733)",52.35733,5.62337,Noorderhoofd, 3846 JV, Harderwijk,https://waarneming.nl/observation/364046104/
"POINT (5.39172 52.00233)",52.00233,5.39172,Gooyerdijk, 3947 NA, Langbroek,https://waarneming.nl/observation/364319775/
"POINT (5.37168 52.19197)",52.19197,5.37168,Zandkamp, 3828 GJ, Hoogland,https://waarneming.nl/observation/364288192/
"POINT (6.19756 52.14769)",52.14769,6.19756,Overweg, 7202 AB, Zutphen,https://waarneming.nl/observation/364203079/
"POINT (5.66647 52.76262)",52.76262,5.66647,Jacob van Ruysdael, 8312 CG, Creil,https://waarneming.nl/observation/364206272/
"POINT (5.24466 52.11381)",52.11381,5.24466,Duinweg, 3735 LD, Bosch en Duin,https://waarneming.nl/observation/364242873/
"POINT (5.24356 52.14655)",52.14655,5.24356,Vuurvlinder, 3734 AB, Den Dolder,https://waarneming.nl/observation/364379838/
"POINT (5.57469 52.03025)",52.03025,5.57469,Grote Beer, 3902 EG, Veenendaal,https://waarneming.nl/observation/364466845/
"POINT (5.02317 52.10841)",52.10841,5.02317,Kromme Boomgaard, 3451 KR, Vleuten,https://waarneming.nl/observation/364355135/
"POINT (5.29477 52.19351)",52.19351,5.29477,Stadhouderslaan, 3761 EP, Soest,https://waarneming.nl/observation/364423534/
"POINT (5.93318 51.77258)",51.77258,5.93318,Herwendaalseweg, 6562 AG, Groesbeek,https://waarneming.nl/observation/367419973/
"POINT (5.67521 52.03996)",52.03996,5.67521,van Heeckerenlaan, 6711 JN, Ede,https://waarneming.nl/observation/364855354/
"POINT (5.98394 51.94803)",51.94803,5.98394,De Hoge Hoeve, 6932 DP, Westervoort,https://waarneming.nl/observation/364553531/
"POINT (5.6648 52.00383)",52.00383,5.66480,Ereprijs, 6721 ZA, Bennekom,https://waarneming.nl/observation/364855596/
"POINT (5.65962 52.03727)",52.03727,5.65962,Bremlaan, 6713 EB, Ede,https://waarneming.nl/observation/364855459/
"POINT (5.27471 52.38981)",52.38981,5.27471,Haasweg, 1338 AS, Almere,https://waarneming.nl/observation/364602847/
"POINT (5.13341 51.77713)",51.77713,5.13341,Maasdijk, 5308 JA, Aalst,https://waarneming.nl/observation/364647543/
"POINT (5.91633 51.99369)",51.99369,5.91633,Braamweg, 6821 JT, Arnhem,https://waarneming.nl/observation/364828872/
"POINT (5.30124 52.04349)",52.04349,5.30124,Driebergsestraatweg, 3941 ZL, Doorn,https://waarneming.nl/observation/364690630/
"POINT (5.13695 51.77495)",51.77495,5.13695,Hambloksestraat, 5308 KN, Aalst,https://waarneming.nl/observation/364702092/
"POINT (6.58038 51.93099)",51.93099,6.58038,Saksenstraat, 7122 CK, Aalten,https://waarneming.nl/observation/364719498/
"POINT (5.68488 52.00807)",52.00807,5.68488,Selterskampweg, 6721 AS, Bennekom,https://waarneming.nl/observation/364855906/
"POINT (5.03403 51.9628)",51.96280,5.03403,Gregoriuslaan, 4128 SW, Lexmond,https://waarneming.nl/observation/364745136/
"POINT (5.71179 52.51515)",52.51515,5.71179,Het Rijpaard, 8252 EV, Dronten,https://waarneming.nl/observation/364898571/
"POINT (5.25296 51.7461)",51.74610,5.25296,De Zanden, 5321 HJ, Hedel,https://waarneming.nl/observation/365615386/
"POINT (5.85398 51.78502)",51.78502,5.85398,Rozenstraat, 6581 XR, Malden,https://waarneming.nl/observation/365061610/
"POINT (5.68542 52.0231)",52.02310,5.68542,Vlashoek, 6717 ZW, Ede,https://waarneming.nl/observation/367141713/
"POINT (6.36998 52.20167)",52.20167,6.36998,Holterweg, 7245 SC, Laren,https://waarneming.nl/observation/365309777/
"POINT (5.88608 51.88707)",51.88707,5.88608,Zandsestraat, 6681 KA, Bemmel,https://waarneming.nl/observation/365134713/
"POINT (6.21674 51.97669)",51.97669,6.21674,Keppelseweg, 7031 EB, Wehl,https://waarneming.nl/observation/365185486/
"POINT (5.06551 51.86355)",51.86355,5.06551,Dwarsweg, 4161 AD, Heukelum,https://waarneming.nl/observation/365277216/
"POINT (5.48326 52.22569)",52.22569,5.48326,Kolkstraat, 3861 AK, Nijkerk,https://waarneming.nl/observation/365302150/
"POINT (5.13478 51.93666)",51.93666,5.13478,Kortgerecht, 4145 NM, Schoonrewoerd,https://waarneming.nl/observation/365370034/
"POINT (5.16018 52.28301)",52.28301,5.16018,Comeniuslaan, 1404 AA, Bussum,https://waarneming.nl/observation/365489820/
"POINT (5.15991 52.28284)",52.28284,5.15991,Comeniuslaan, 1404 AB, Bussum,https://waarneming.nl/observation/365492055/
"POINT (4.73419 52.62341)",52.62341,4.73419,Supporterslaantje, 1815 LX, Alkmaar,https://waarneming.nl/observation/365560608/
"POINT (6.34555 51.99817)",51.99817,6.34555,Doetinchemseweg, 7021 BR, Zelhem,https://waarneming.nl/observation/365621391/
"POINT (5.28817 52.20835)",52.20835,5.28817,Kettingweg, 3743 HN, Baarn,https://waarneming.nl/observation/365593540/
"POINT (5.16697 52.01943)",52.01943,5.16697,Beukenhout, 3991 PW, Houten,https://waarneming.nl/observation/365623654/
"POINT (5.33944 52.00601)",52.00601,5.33944,Langbroekerdijk, 3947 BL, Langbroek,https://waarneming.nl/observation/365605955/
"POINT (5.55029 52.00859)",52.00859,5.55029,Egellaan, 3903 CP, Veenendaal,https://waarneming.nl/observation/365720123/
"POINT (5.24292 52.09528)",52.09528,5.24292,Schaerweijdelaan, 3702 GC, Zeist,https://waarneming.nl/observation/365784026/
"POINT (5.64616 52.28886)",52.28886,5.64616,Drieërweg, 3852 MB, Ermelo,https://waarneming.nl/observation/365672065/
"POINT (5.64877 52.28948)",52.28948,5.64877,Schoolweg, 3852 ZD, Ermelo,https://waarneming.nl/observation/365671307/
"POINT (5.67141 52.01031)",52.01031,5.67141,West Breukelderweg, 6721 MP, Bennekom,https://waarneming.nl/observation/365690920/
"POINT (5.305 52.21253)",52.21253,5.30500,Callenburglaan, 3742 MT, Baarn,https://waarneming.nl/observation/365704556/
"POINT (5.54989 52.00862)",52.00862,5.54989,Egellaan, 3903 CP, Veenendaal,https://waarneming.nl/observation/365723817/
"POINT (6.26191 52.06608)",52.06608,6.26191,Kerveldijk, 7223 KC, Baak,https://waarneming.nl/observation/365734679/
"POINT (6.26242 52.06506)",52.06506,6.26242,Kerveldijk, 7223 KC, Baak,https://waarneming.nl/observation/365931343/
"POINT (4.9205 52.0599)",52.05990,4.92050,Korenbloemhof, 3461 GT, Linschoten,https://waarneming.nl/observation/365813322/
"POINT (5.34485 51.83238)",51.83238,5.34485,Weiweg, 4064 CJ, Varik,https://waarneming.nl/observation/365893784/
"POINT (5.42706 52.01305)",52.01305,5.42706,Meester Bosweg, 3956 XH, Leersum,https://waarneming.nl/observation/365898132/
"POINT (5.90396 51.9565)",51.95650,5.90396,Veendamstraat, 6835 AG, Arnhem,https://waarneming.nl/observation/365913406/
"POINT (5.5658 52.2689)",52.26890,5.56580,Vanenburgerallee, 3882 RH, Putten,https://waarneming.nl/observation/366035882/
"POINT (5.77898 51.86029)",51.86029,5.77898,Lavendelstraat, 6641 BX, Beuningen,https://waarneming.nl/observation/366141015/
"POINT (5.13731 52.06312)",52.06312,5.13731,Graafschap, 3524 TR, Utrecht,https://waarneming.nl/observation/366067442/
"POINT (5.13695 52.06278)",52.06278,5.13695,Graafschap, 3524 TG, Utrecht,https://waarneming.nl/observation/366063047/
"POINT (5.27845 52.08863)",52.08863,5.27845,Woudenbergseweg, 3707 HX, Zeist,https://waarneming.nl/observation/366101421/
"POINT (4.62621 52.42474)",52.42474,4.62621,Brederoodseweg, 2082 BS, Santpoort-Zuid,https://waarneming.nl/observation/366137491/
"POINT (5.25833 52.09263)",52.09263,5.25833,Aristoteleslaan, 3707 EM, Zeist,https://waarneming.nl/observation/366150664/
"POINT (5.11376 52.11818)",52.11818,5.11376,Humberdreef, 3562 HG, Utrecht,https://waarneming.nl/observation/366293525/
"POINT (4.80618 52.64442)",52.64442,4.80618,Tuin van Freyr, 1705 SW, Heerhugowaard,https://waarneming.nl/observation/366346138/
"POINT (6.38248 51.88763)",51.88763,6.38248,Ankerstraat, 7071 WH, Ulft,https://waarneming.nl/observation/366743176/
"POINT (5.64877 51.96227)",51.96227,5.64877,Van Houtenstraat, 6702 CT, Wageningen,https://waarneming.nl/observation/368324374/
"POINT (5.39071 52.1864)",52.18640,5.39071,Amaniet, 3823 XC, Amersfoort,https://waarneming.nl/observation/366741015/
"POINT (5.86441 51.95078)",51.95078,5.86441,Boxtelstraat, 6843 RX, Arnhem,https://waarneming.nl/observation/366783337/
"POINT (5.29849 52.20609)",52.20609,5.29849,Bremstraat, 3742 RE, Baarn,https://waarneming.nl/observation/366795891/
"POINT (5.29176 52.17654)",52.17654,5.29176,Heetakker, 3762 AZ, Soest,https://waarneming.nl/observation/368714784/
"POINT (5.47142 51.99934)",51.99934,5.47142,Veenseweg, 3958 ET, Amerongen,https://waarneming.nl/observation/366915699/
"POINT (5.90168 51.83784)",51.83784,5.90168,Thilman Werenbertszstraat, 6574 AM, Ubbergen,https://waarneming.nl/observation/366965506/
"POINT (5.42496 52.1274)",52.12740,5.42496,Karrepad, 3833 VV, Leusden,https://waarneming.nl/observation/366953994/
"POINT (6.52581 52.12134)",52.12134,6.52581,Nobelstraat, 7271 VC, Borculo,https://waarneming.nl/observation/366955757/
"POINT (6.52768 52.12325)",52.12325,6.52768,Kamerlingh Onnesstraat, 7271 AZ, Borculo,https://waarneming.nl/observation/366973027/
"POINT (5.40015 52.12212)",52.12212,5.40015,Treekerweg, 3832 GX, Leusden,https://waarneming.nl/observation/367016069/
"POINT (5.30458 52.21255)",52.21255,5.30458,Callenburglaan, 3742 MT, Baarn,https://waarneming.nl/observation/367039622/
"POINT (5.40174 52.00777)",52.00777,5.40174,Broekhuizerlaan, 3956 NS, Leersum,https://waarneming.nl/observation/367306758/
"POINT (5.51942 52.50158)",52.50158,5.51942,,8219 AS, Lelystad,https://waarneming.nl/observation/367205799/
"POINT (5.40134 52.00742)",52.00742,5.40134,Broekhuizerlaan, 3956 NS, Leersum,https://waarneming.nl/observation/367336592/
"POINT (5.1081 52.08316)",52.08316,5.10810,Veilingstraat, 3521 BE, Utrecht,https://waarneming.nl/observation/367491625/
"POINT (5.93811 51.781)",51.78100,5.93811,Cranenburgsestraat, 6561 AN, Groesbeek,https://waarneming.nl/observation/367426772/
"POINT (5.93667 51.78036)",51.78036,5.93667,van Nispenstraat, 6561 BG, Groesbeek,https://waarneming.nl/observation/367427922/
"POINT (5.97548 52.18641)",52.18641,5.97548,Merwedestraat, 7333 MD, Apeldoorn,https://waarneming.nl/observation/367490336/
"POINT (5.13518 52.10536)",52.10536,5.13518,Van Herwerdenlaan, 3571 ZK, Utrecht,https://waarneming.nl/observation/367629610/
"POINT (5.26872 52.08146)",52.08146,5.26872,Graaf Janlaan, 3708 GL, Zeist,https://waarneming.nl/observation/367615909/
"POINT (5.4217 52.08137)",52.08137,5.42170,Stationsweg West, 3931 EK, Woudenberg,https://waarneming.nl/observation/367622587/
"POINT (5.13498 52.06008)",52.06008,5.13498,Jura, 3524 HP, Utrecht,https://waarneming.nl/observation/367738715/
"POINT (5.22003 52.08454)",52.08454,5.22003,Nijenheim 40, 3704 SR, Zeist,https://waarneming.nl/observation/367977914/
"POINT (5.42453 52.12736)",52.12736,5.42453,Karrepad, 3833 VV, Leusden,https://waarneming.nl/observation/368817217/
"POINT (5.21096 52.08504)",52.08504,5.21096,Brugakker, 3704 MA, Zeist,https://waarneming.nl/observation/367976959/
"POINT (5.16451 52.03646)",52.03646,5.16451,Hoenderhoeve, 3992 XK, Houten,https://waarneming.nl/observation/368268738/
"POINT (5.28055 52.08684)",52.08684,5.28055,Zwitsersekade, 3707 HZ, Zeist,https://waarneming.nl/observation/368024833/
"POINT (5.10878 52.08319)",52.08319,5.10878,Veilingstraat, 3521 BE, Utrecht,https://waarneming.nl/observation/368147815/
"POINT (4.84927 52.30771)",52.30771,4.84927,Molenweg, 1182 CD, Amstelveen,https://waarneming.nl/observation/368169738/
"POINT (5.28697 52.04893)",52.04893,5.28697,Hoofdstraat, 3972 GJ, Driebergen-Rijsenburg,https://waarneming.nl/observation/368328934/
"POINT (5.21103 52.08479)",52.08479,5.21103,Brugakker, 3704 MC, Zeist,https://waarneming.nl/observation/370277603/
"POINT (5.39242 52.18452)",52.18452,5.39242,Kornwerderzand, 3823 AW, Amersfoort,https://waarneming.nl/observation/368249087/
"POINT (5.25606 52.09053)",52.09053,5.25606,Aristoteleslaan, 3707 EK, Zeist,https://waarneming.nl/observation/368248174/
"POINT (5.25611 52.08044)",52.08044,5.25611,Ernst Casimirlaan, 3708 CH, Zeist,https://waarneming.nl/observation/368293189/
"POINT (5.91389 51.82578)",51.82578,5.91389,Stollenbergweg, 6572 AC, Berg en Dal,https://waarneming.nl/observation/368389349/
"POINT (5.94053 51.88476)",51.88476,5.94053,De Hoek, 6685 BD, Haalderen,https://waarneming.nl/observation/368480761/
"POINT (4.9665 52.08541)",52.08541,4.96650,Dammolen, 3481 AK, Harmelen,https://waarneming.nl/observation/368481622/
"POINT (4.99713 52.09067)",52.09067,4.99713,Romeinse weg, 3452 EG, Vleuten,https://waarneming.nl/observation/368496075/
"POINT (5.68669 51.97018)",51.97018,5.68669,Edelmanlaan, 6703 EX, Wageningen,https://waarneming.nl/observation/368600737/
"POINT (5.39784 52.16908)",52.16908,5.39784,Parelhoenstraat, 3815 AG, Amersfoort,https://waarneming.nl/observation/368599387/
"POINT (5.93197 51.77463)",51.77463,5.93197,Pannenstraat, 6562 AE, Groesbeek,https://waarneming.nl/observation/368761064/
"POINT (4.62865 52.44394)",52.44394,4.62865,Betonweg, 1985 HG, Santpoort-Noord,https://waarneming.nl/observation/368759607/
"POINT (5.96741 51.98673)",51.98673,5.96741,De Straatweiden, 6882 EG, Velp,https://waarneming.nl/observation/368614536/
"POINT (6.62312 51.92669)",51.92669,6.62312,Kleuverspad, 7121 LE, Aalten,https://waarneming.nl/observation/369940647/
"POINT (5.06156 52.33057)",52.33057,5.06156,de Kogge, 1398 CE, Muiden,https://waarneming.nl/observation/368847261/
"POINT (5.81505 51.85766)",51.85766,5.81505,Van Heemstraweg, 6551 BC, Weurt,https://waarneming.nl/observation/368748607/
"POINT (5.1607 52.21933)",52.21933,5.16070,Multatulilaan, 1215 BJ, Hilversum,https://waarneming.nl/observation/368777936/
"POINT (5.93256 51.78091)",51.78091,5.93256,Händelstraat, 6561 ET, Groesbeek,https://waarneming.nl/observation/368934435/
"POINT (6.05696 51.93191)",51.93191,6.05696,Monnetstraat, 6904 LR, Zevenaar,https://waarneming.nl/observation/368825847/
"POINT (5.79302 52.37763)",52.37763,5.79302,Naaldhof, 8071 AX, Nunspeet,https://waarneming.nl/observation/368832751/
"POINT (5.82872 51.81102)",51.81102,5.82872,Topaasstraat, 6534 ZJ, Nijmegen,https://waarneming.nl/observation/370523277/
"POINT (5.80128 51.79598)",51.79598,5.80128,Staddijk, 6536 ZZ, Nijmegen,https://waarneming.nl/observation/368889041/
"POINT (4.61834 52.38937)",52.38937,4.61834,Prins Hendriklaan, 2051 JB, Overveen,https://waarneming.nl/observation/368901409/
"POINT (5.94166 52.2178)",52.21780,5.94166,Zandloperweg, 7314 JX, Apeldoorn,https://waarneming.nl/observation/368931726/
"POINT (5.95168 52.19007)",52.19007,5.95168,Arie Liemanlaan, 7334 CP, Apeldoorn,https://waarneming.nl/observation/369023535/
"POINT (5.92097 51.78764)",51.78764,5.92097,Nieuweweg, 6561 AB, Groesbeek,https://waarneming.nl/observation/369346519/
"POINT (5.19843 52.23716)",52.23716,5.19843,Orionlaan, 1223 AK, Hilversum,https://waarneming.nl/observation/369194233/
"POINT (5.22067 52.25045)",52.25045,5.22067,Klein Laren, 1251 LP, Laren,https://waarneming.nl/observation/369216727/
"POINT (5.11906 52.05967)",52.05967,5.11906,Musketierlaan, 3525 GZ, Utrecht,https://waarneming.nl/observation/369236118/
"POINT (6.05545 51.93907)",51.93907,6.05545,Schellenkrans, 6904 PV, Zevenaar,https://waarneming.nl/observation/369424128/
"POINT (5.28426 52.05726)",52.05726,5.28426,Park Sparrendaal, 3971 SV, Driebergen-Rijsenburg,https://waarneming.nl/observation/369375279/
"POINT (5.94871 52.19201)",52.19201,5.94871,Beeklustweg, 7335 JB, Apeldoorn,https://waarneming.nl/observation/369409851/
"POINT (5.93939 52.18203)",52.18203,5.93939,Hulkestein, 7339 AW, Ugchelen,https://waarneming.nl/observation/369441379/
"POINT (5.09632 52.12478)",52.12478,5.09632,Denverdreef, 3564 KN, Utrecht,https://waarneming.nl/observation/369518511/
"POINT (4.80695 52.37924)",52.37924,4.80695,Doctor H. Colijnstraat, 1067 CH, Amsterdam,https://waarneming.nl/observation/369487195/
"POINT (4.74409 52.2319)",52.23190,4.74409,Geerland, 1433 JR, Kudelstaart,https://waarneming.nl/observation/369898149/
"POINT (5.28719 52.04919)",52.04919,5.28719,Wethouder Teselinglaan, 3972 GB, Driebergen-Rijsenburg,https://waarneming.nl/observation/369560673/
"POINT (4.73656 52.56347)",52.56347,4.73656,Julianaweg, 1921 BE, Akersloot,https://waarneming.nl/observation/369585092/
"POINT (5.57331 52.03191)",52.03191,5.57331,Haverveld, 3902 EB, Veenendaal,https://waarneming.nl/observation/369654698/
"POINT (5.30128 52.18262)",52.18262,5.30128,Talmalaan, 3761 AN, Soest,https://waarneming.nl/observation/369658513/
"POINT (5.27442 52.16491)",52.16491,5.27442,Reespoor, 3766 JZ, Soest,https://waarneming.nl/observation/369618274/
"POINT (5.34246 52.00331)",52.00331,5.34246,Langbroekerdijk, 3947 CS, Langbroek,https://waarneming.nl/observation/369686140/
"POINT (5.65779 52.04962)",52.04962,5.65779,Tasmanstraat, 6712 KB, Ede,https://waarneming.nl/observation/369739796/
"POINT (5.65295 51.97766)",51.97766,5.65295,Gruttoweide, 6708 BK, Wageningen,https://waarneming.nl/observation/369677312/
"POINT (4.64606 52.45362)",52.45362,4.64606,Driehuizerkerkweg, 1981 LZ, Velsen-Zuid,https://waarneming.nl/observation/369722525/
"POINT (4.87942 52.08121)",52.08121,4.87942,Hortensiapad, 3442 XD, Woerden,https://waarneming.nl/observation/369787039/
"POINT (4.74429 52.23212)",52.23212,4.74429,Geerland, 1433 JL, Kudelstaart,https://waarneming.nl/observation/369812378/
"POINT (5.19649 51.88851)",51.88851,5.19649,Slotstraat, 4153 VA, Beesd,https://waarneming.nl/observation/369929897/
"POINT (5.42784 52.07629)",52.07629,5.42784,Ter Maatenlaan, 3931 WG, Woudenberg,https://waarneming.nl/observation/369938393/
"POINT (5.92253 51.98143)",51.98143,5.92253,Boulevard Heuvelink, 6828 KM, Arnhem,https://waarneming.nl/observation/370116598/
"POINT (5.26304 51.79472)",51.79472,5.26304,Van Voordenpark, 5301 KP, Zaltbommel,https://waarneming.nl/observation/370291249/
"POINT (6.35217 51.91824)",51.91824,6.35217,Ettensestraat, 7061 AB, Terborg,https://waarneming.nl/observation/370368332/
"POINT (4.83506 52.24449)",52.24449,4.83506,Ter Braaklaan, 1422 DE, Uithoorn,https://waarneming.nl/observation/370191946/
"POINT (5.54575 52.01009)",52.01009,5.54575,Zijdemos, 3904 BK, Veenendaal,https://waarneming.nl/observation/370150994/
"POINT (5.30341 52.20903)",52.20903,5.30341,de Meerpaal, 3742 HS, Baarn,https://waarneming.nl/observation/370173859/
"POINT (5.95689 52.25556)",52.25556,5.95689,Papegaaiweg, 7345 DK, Wiesel,https://waarneming.nl/observation/370257327/
"POINT (5.65218 51.96909)",51.96909,5.65218,Marijkeweg, 6709 PE, Wageningen,https://waarneming.nl/observation/370409659/
"POINT (6.48468 51.96497)",51.96497,6.48468,Bosboombroekerweg, 7055 AT, Heelweg,https://waarneming.nl/observation/370350213/
"POINT (5.32947 52.03776)",52.03776,5.32947,Woestduinlaan, 3941 XD, Doorn,https://waarneming.nl/observation/370362471/
"POINT (5.37058 52.17779)",52.17779,5.37058,Het Welvaren, 3828 RN, Hoogland,https://waarneming.nl/observation/370357843/
"POINT (5.92327 51.78796)",51.78796,5.92327,Nieuweweg, 6561 AB, Groesbeek,https://waarneming.nl/observation/370534804/
"POINT (4.88557 52.32401)",52.32401,4.88557,Nederhoven, 1083 AM, Amsterdam,https://waarneming.nl/observation/370480961/
"POINT (4.78855 52.34195)",52.34195,4.78855,Nieuwemeerdijk, 1171 NA, Badhoevedorp,https://waarneming.nl/observation/371021407/
"POINT (5.90796 51.82382)",51.82382,5.90796,Vierparkenpad, 6571 AT, Berg en Dal,https://waarneming.nl/observation/370521406/
"POINT (5.19195 52.09056)",52.09056,5.19195,A28, 3732 HV, De Bilt,https://waarneming.nl/observation/370402004/
"POINT (5.28009 52.08794)",52.08794,5.28009,Zwitsersekade, 3707 HZ, Zeist,https://waarneming.nl/observation/370452711/
"POINT (5.99111 52.22028)",52.22028,5.99111,Kruizemuntstraat, 7322 MN, Apeldoorn,https://waarneming.nl/observation/370481250/
"POINT (5.26461 52.2197)",52.21970,5.26461,Bachlaan, 3741 HS, Baarn,https://waarneming.nl/observation/370515250/
"POINT (5.89332 51.84027)",51.84027,5.89332,Rijksstraatweg, 6574 AD, Ubbergen,https://waarneming.nl/observation/370590932/
"POINT (5.5742 52.0321)",52.03210,5.57420,Grote Beer, 3902 DJ, Veenendaal,https://waarneming.nl/observation/370652790/
"POINT (5.20794 52.0845)",52.08450,5.20794,Brugakker, 3704 RP, Zeist,https://waarneming.nl/observation/370602843/
"POINT (4.88546 52.32342)",52.32342,4.88546,Ouborg, 1083 AE, Amsterdam,https://waarneming.nl/observation/370601067/
"POINT (5.32332 51.96888)",51.96888,5.32332,Zuidwijk, 3961 NK, Wijk bij Duurstede,https://waarneming.nl/observation/370603635/
"POINT (6.39561 52.15324)",52.15324,6.39561,Albert Hahnweg, 7242 MP, Lochem,https://waarneming.nl/observation/370608375/
"POINT (5.7135 51.7791)",51.77910,5.71350,Den Bogerd, 6613 BA, Balgoij,https://waarneming.nl/observation/370900103/
"POINT (5.71312 51.77897)",51.77897,5.71312,Den Bogerd, 6613 BA, Balgoij,https://waarneming.nl/observation/370901093/
"POINT (5.18487 52.10596)",52.10596,5.18487,Tuinstraat, 3732 VL, De Bilt,https://waarneming.nl/observation/370682304/
"POINT (5.80174 51.80333)",51.80333,5.80174,Aldenhof, 6537 AN, Nijmegen,https://waarneming.nl/observation/370822018/
"POINT (5.32727 52.03514)",52.03514,5.32727,Pittesteeg, 3941 PV, Doorn,https://waarneming.nl/observation/370771774/
"POINT (6.39568 52.15355)",52.15355,6.39568,Albert Hahnweg, 7242 MP, Lochem,https://waarneming.nl/observation/370771933/
"POINT (5.63945 52.56353)",52.56353,5.63945,Struikheideveld, 8255 JL, Swifterbant,https://waarneming.nl/observation/370773781/
"POINT (6.29899 51.96955)",51.96955,6.29899,Tollensstraat, 7002 AC, Doetinchem,https://waarneming.nl/observation/370783618/
"POINT (4.87056 52.02847)",52.02847,4.87056,Van Zyllpad, 3421 JT, Oudewater,https://waarneming.nl/observation/370797786/
"POINT (6.29876 51.96925)",51.96925,6.29876,Tollensstraat, 7002 AC, Doetinchem,https://waarneming.nl/observation/370815652/
"POINT (4.76866 52.26809)",52.26809,4.76866,Seringenpark, 1431 EP, Aalsmeer,https://waarneming.nl/observation/370824921/
"POINT (5.00619 52.5034)",52.50340,5.00619,Contact, 1446 WB, Purmerend,https://waarneming.nl/observation/370905277/
"POINT (4.95672 52.51603)",52.51603,4.95672,Flevostraat, 1442 RB, Purmerend,https://waarneming.nl/observation/370903076/
"POINT (5.1676 52.01913)",52.01913,5.16760,Mahoniehout, 3991 MM, Houten,https://waarneming.nl/observation/370912216/
"POINT (4.70082 52.70673)",52.70673,4.70082,Dennenlaantje, 1871 CE, Schoorl,https://waarneming.nl/observation/370947179/
"POINT (6.29252 52.08584)",52.08584,6.29252,Hamminkweg, 7251 PZ, Vorden,https://waarneming.nl/observation/370984843/
"POINT (4.70253 52.70987)",52.70987,4.70253,Oudendijk, 1871 VB, Schoorl,https://waarneming.nl/observation/371005683/
"POINT (4.67622 52.43619)",52.43619,4.67622,Oostbroekerweg, 1981 LR, Velsen-Zuid,https://waarneming.nl/observation/371110077/
"POINT (5.24352 52.09503)",52.09503,5.24352,Bergweg, 3707 AE, Zeist,https://waarneming.nl/observation/371082270/
"POINT (5.1398 52.10976)",52.10976,5.13980,Vinkenpad, 3571 KL, Utrecht,https://waarneming.nl/observation/371164527/
"POINT (5.13975 52.11033)",52.11033,5.13975,Fazantpad, 3571 KL, Utrecht,https://waarneming.nl/observation/371300070/
"POINT (5.84725 51.83244)",51.83244,5.84725,Pootstraat, 6531 GR, Nijmegen,https://waarneming.nl/observation/371216673/
"POINT (5.02329 52.17715)",52.17715,5.02329,Scheendijk, 3621 VB, Breukelen,https://waarneming.nl/observation/371286112/
"POINT (5.46041 52.0042)",52.00420,5.46041,Koningin Emmalaan, 3958 GV, Amerongen,https://waarneming.nl/observation/371297065/
"POINT (5.0058 52.50259)",52.50259,5.00580,Volume, 1446 WS, Purmerend,https://waarneming.nl/observation/372552348/
"POINT (5.93026 51.77585)",51.77585,5.93026,Litsenhof, 6562 VB, Groesbeek,https://waarneming.nl/observation/371272599/
"POINT (4.71508 52.63079)",52.63079,4.71508,Terborchlaan, 1816 PW, Alkmaar,https://waarneming.nl/observation/371337047/
"POINT (5.34701 52.0355)",52.03550,5.34701,Acacialaan, 3941 JP, Doorn,https://waarneming.nl/observation/371297170/
"POINT (5.7385 51.97719)",51.97719,5.73850,Joan Beukerweg, 6871 GC, Renkum,https://waarneming.nl/observation/371427601/
"POINT (5.36351 52.06211)",52.06211,5.36351,De Pol, 3951 AW, Maarn,https://waarneming.nl/observation/371441359/
"POINT (5.02289 52.13633)",52.13633,5.02289,Pauwenkamp, 3607 GK, Maarssen,https://waarneming.nl/observation/371427144/
"POINT (5.3785 52.06363)",52.06363,5.37850,Klein Amsterdam, 3951 VP, Maarn,https://waarneming.nl/observation/371433092/
"POINT (6.56727 51.90854)",51.90854,6.56727,Vierde Broekdijk, 7122 JD, Aalten,https://waarneming.nl/observation/371461827/
"POINT (5.3581 51.84581)",51.84581,5.35810,Uilenburgsestraat, 4061 RH, Ophemert,https://waarneming.nl/observation/371501167/
"POINT (5.0352 52.02841)",52.02841,5.03520,Sparrendael, 3401 HD, IJsselstein,https://waarneming.nl/observation/371525423/
"POINT (4.74772 52.88597)",52.88597,4.74772,Doorzwin, 1788 SM, Julianadorp,https://waarneming.nl/observation/371504178/
"POINT (5.34788 52.04238)",52.04238,5.34788,Bergweg, 3941 RA, Doorn,https://waarneming.nl/observation/371509267/
"POINT (4.74606 52.88608)",52.88608,4.74606,Doorzwin, 1788 SP, Julianadorp,https://waarneming.nl/observation/371570436/
"POINT (5.27316 52.06224)",52.06224,5.27316,Loolaan, 3971 PP, Driebergen-Rijsenburg,https://waarneming.nl/observation/371517420/
"POINT (5.47863 51.88261)",51.88261,5.47863,Kerkstraat, 6659 AC, Wamel,https://waarneming.nl/observation/373380685/
"POINT (5.3581 51.84551)",51.84551,5.35810,Uilenburgsestraat, 4061 RH, Ophemert,https://waarneming.nl/observation/371571247/
"POINT (5.59133 51.93264)",51.93264,5.59133,Batterijenweg, 4041 DA, Kesteren,https://waarneming.nl/observation/371680484/
"POINT (5.22507 52.40609)",52.40609,5.22507,Trekvogelpad, 1332 CP, Almere,https://waarneming.nl/observation/371680197/
"POINT (5.49603 52.02842)",52.02842,5.49603,Eindseweg, 3959 AG, Overberg,https://waarneming.nl/observation/371719773/
"POINT (5.54189 52.0171)",52.01710,5.54189,Doctor Slotemaker de Bruïneplein, 3904 CX, Veenendaal,https://waarneming.nl/observation/371757964/
"POINT (5.85485 51.77339)",51.77339,5.85485,De Hoef, 6581 JH, Malden,https://waarneming.nl/observation/371602899/
"POINT (5.13046 52.10457)",52.10457,5.13046,Eykmanlaan, 3571 JS, Utrecht,https://waarneming.nl/observation/371605493/
"POINT (5.33941 52.00268)",52.00268,5.33941,Langbroekerdijk, 3947 BL, Langbroek,https://waarneming.nl/observation/371657170/
"POINT (4.97945 52.00702)",52.00702,4.97945,Oranje-Nassaustraat, 3405 XJ, Benschop,https://waarneming.nl/observation/371629141/
"POINT (5.82966 51.82494)",51.82494,5.82966,Heideparkseweg, 6532 TD, Nijmegen,https://waarneming.nl/observation/372253930/
"POINT (4.97999 52.00701)",52.00701,4.97999,Theo Kleverstraat, 3405 XE, Benschop,https://waarneming.nl/observation/371772547/
"POINT (5.30042 52.21279)",52.21279,5.30042,Tromplaan, 3742 AL, Baarn,https://waarneming.nl/observation/371746414/
"POINT (4.61773 52.26487)",52.26487,4.61773,Zichtweg, 2151 WE, Nieuw-Vennep,https://waarneming.nl/observation/371862674/
"POINT (5.12021 52.10354)",52.10354,5.12021,Maria van Reedestraat, 3515 XJ, Utrecht,https://waarneming.nl/observation/371892307/
"POINT (5.30559 52.70673)",52.70673,5.30559,Wagenaarstraat, 1601 LG, Enkhuizen,https://waarneming.nl/observation/371878760/
"POINT (4.61955 52.26151)",52.26151,4.61955,Kalslagerring, 2151 SP, Nieuw-Vennep,https://waarneming.nl/observation/371919106/
"POINT (6.22991 52.00379)",52.00379,6.22991,Groeneweg, 6999 AW, Hummelo,https://waarneming.nl/observation/371849194/
"POINT (5.18622 52.06794)",52.06794,5.18622,Bezembinderspad, 3981 TD, Bunnik,https://waarneming.nl/observation/371862887/
"POINT (5.92121 51.83164)",51.83164,5.92121,Jacob Catsstraat, 6573 CG, Beek,https://waarneming.nl/observation/372012440/
"POINT (4.87982 52.08151)",52.08151,4.87982,Hortensiapad, 3442 XE, Woerden,https://waarneming.nl/observation/372024165/
"POINT (5.27238 52.06672)",52.06672,5.27238,Sportlaan, 3971 NC, Driebergen-Rijsenburg,https://waarneming.nl/observation/372081754/
"POINT (5.30615 52.06296)",52.06296,5.30615,Traaij, 3971 GM, Driebergen-Rijsenburg,https://waarneming.nl/observation/372076563/
"POINT (5.44896 52.17273)",52.17273,5.44896,Pastoorakker, 3871 MN, Hoevelaken,https://waarneming.nl/observation/372041160/
"POINT (5.38447 52.18768)",52.18768,5.38447,Woudzoom, 3823 CA, Amersfoort,https://waarneming.nl/observation/372040532/
"POINT (5.43561 52.13655)",52.13655,5.43561,Gironde, 3831 AB, Leusden,https://waarneming.nl/observation/372165071/
"POINT (4.93963 52.35613)",52.35613,4.93963,Archimedeslaan, 1098 PT, Amsterdam,https://waarneming.nl/observation/372176325/
"POINT (5.22514 52.40729)",52.40729,5.22514,Trekvogelpad, 1332 CP, Almere,https://waarneming.nl/observation/372223391/
"POINT (4.94441 52.35331)",52.35331,4.94441,Johannes van der Waalsstraat, 1098 PH, Amsterdam,https://waarneming.nl/observation/374483040/
"POINT (5.22928 52.08151)",52.08151,5.22928,Griffensteijnselaan, 3703 AD, Zeist,https://waarneming.nl/observation/372192521/
"POINT (6.39188 51.87628)",51.87628,6.39188,Engbergseweg, 7083 AA, Voorst,https://waarneming.nl/observation/372200636/
"POINT (5.01537 52.0803)",52.08030,5.01537,De Milan Viscontilaan, 3453 TB, De Meern,https://waarneming.nl/observation/372310251/
"POINT (4.60426 52.33828)",52.33828,4.60426,Herenweg, 2105 MB, Heemstede,https://waarneming.nl/observation/372234192/
"POINT (5.87671 51.95918)",51.95918,5.87671,Westerveldsestraat, 6842 BR, Arnhem,https://waarneming.nl/observation/372237112/
"POINT (4.65875 52.5014)",52.50140,4.65875,Pad acker, 1965 TN, Heemskerk,https://waarneming.nl/observation/372249972/
"POINT (5.27962 52.0867)",52.08670,5.27962,Zwitsersekade, 3707 HZ, Zeist,https://waarneming.nl/observation/372308952/
"POINT (5.21276 52.34715)",52.34715,5.21276,Peppengouw, 1351 NG, Almere,https://waarneming.nl/observation/372288877/
"POINT (5.22549 52.40709)",52.40709,5.22549,Trekvogelpad, 1332 CP, Almere,https://waarneming.nl/observation/372325927/
"POINT (5.1223 51.98232)",51.98232,5.12230,Hoevenweg, 4124 AZ, Hagestein,https://waarneming.nl/observation/372336966/
"POINT (6.36499 52.19572)",52.19572,6.36499,Koeslagstraat, 7245 AS, Laren,https://waarneming.nl/observation/372361584/
"POINT (5.84583 51.78916)",51.78916,5.84583,Grootveldschelaan, 6581 GT, Malden,https://waarneming.nl/observation/372366898/
"POINT (5.22514 52.40762)",52.40762,5.22514,Trekvogelpad, 1332 CP, Almere,https://waarneming.nl/observation/372904255/
"POINT (5.1828 51.78278)",51.78278,5.18280,Jan Stuversdreef, 5316 NC, Delwijnen,https://waarneming.nl/observation/372397229/
"POINT (5.3056 52.70699)",52.70699,5.30560,Wagenaarstraat, 1601 LH, Enkhuizen,https://waarneming.nl/observation/372476358/
"POINT (4.88324 52.3454)",52.34540,4.88324,Guido Gezellestraat, 1077 WP, Amsterdam,https://waarneming.nl/observation/372433545/
"POINT (4.59953 52.37103)",52.37103,4.59953,Generaal Spoorlaan, 2111 WS, Aerdenhout,https://waarneming.nl/observation/372470927/
"POINT (5.82752 51.83309)",51.83309,5.82752,Joubertstraat, 6543 NR, Nijmegen,https://waarneming.nl/observation/372472902/
"POINT (5.43746 52.01485)",52.01485,5.43746,Wildbaan, 3956 VZ, Leersum,https://waarneming.nl/observation/372495098/
"POINT (4.91005 52.06358)",52.06358,4.91005,Korte Linschoten Westzijde, 3461 EB, Linschoten,https://waarneming.nl/observation/372528909/
"POINT (5.1212 51.98361)",51.98361,5.12120,Hoevenweg, 4125 RT, Hagestein,https://waarneming.nl/observation/372538381/
"POINT (5.44087 52.12776)",52.12776,5.44087,Jachtpad, 3834 CE, Leusden,https://waarneming.nl/observation/372810916/
"POINT (6.57139 51.92651)",51.92651,6.57139,Andromeda, 7122 XD, Aalten,https://waarneming.nl/observation/372569532/
"POINT (4.88049 52.08949)",52.08949,4.88049,Nieuwendijk, 3443 BH, Woerden,https://waarneming.nl/observation/372600596/
"POINT (5.17746 52.03797)",52.03797,5.17746,Snoeksloot, 3993 HP, Houten,https://waarneming.nl/observation/372629590/
"POINT (5.07137 51.87311)",51.87311,5.07137,Appeldijk, 4161 BH, Heukelum,https://waarneming.nl/observation/372881155/
"POINT (5.28862 52.20863)",52.20863,5.28862,Kettingweg, 3743 HN, Baarn,https://waarneming.nl/observation/372863911/
"POINT (5.85766 51.81237)",51.81237,5.85766,Heemraadstraat, 6525 TK, Nijmegen,https://waarneming.nl/observation/372678336/
"POINT (5.04409 52.07729)",52.07729,5.04409,Gessel, 3454 PD, De Meern,https://waarneming.nl/observation/372664144/
"POINT (5.24085 51.7879)",51.78790,5.24085,Groenestraat, 5314 AJ, Bruchem,https://waarneming.nl/observation/372672278/
"POINT (5.57859 51.96431)",51.96431,5.57859,Ribeslaan, 3911 ZW, Rhenen,https://waarneming.nl/observation/372811116/
"POINT (5.2652 51.74473)",51.74473,5.26520,Muntmeesterstraat, 5321 VB, Hedel,https://waarneming.nl/observation/372757535/
"POINT (5.24501 52.08428)",52.08428,5.24501,Choisyweg, 3701 TA, Zeist,https://waarneming.nl/observation/372766279/
"POINT (5.33173 51.97502)",51.97502,5.33173,Waag, 3961 LX, Wijk bij Duurstede,https://waarneming.nl/observation/372797733/
"POINT (5.3304 51.97568)",51.97568,5.33040,Overloop, 3961 EP, Wijk bij Duurstede,https://waarneming.nl/observation/372784922/
"POINT (5.23674 52.09791)",52.09791,5.23674,Groen van Prinstererlaan, 3705 HV, Zeist,https://waarneming.nl/observation/372877288/
"POINT (5.54767 52.31938)",52.31938,5.54767,Winde, 3892 HG, Zeewolde,https://waarneming.nl/observation/372784900/
"POINT (5.24641 52.09018)",52.09018,5.24641,De Wetlaan, 3707 XB, Zeist,https://waarneming.nl/observation/372812474/
"POINT (5.79398 51.98131)",51.98131,5.79398,Beethovenlaan, 6865 DW, Doorwerth,https://waarneming.nl/observation/372906787/
"POINT (5.79368 51.98183)",51.98183,5.79368,Beethovenlaan, 6865 DL, Doorwerth,https://waarneming.nl/observation/372862868/
"POINT (5.82529 52.02857)",52.02857,5.82529,Hartenkoning, 6816 TK, Arnhem,https://waarneming.nl/observation/372895147/
"POINT (5.82734 52.02896)",52.02896,5.82734,Hartenkoning, 6816 TK, Arnhem,https://waarneming.nl/observation/372880199/
"POINT (5.02538 52.07628)",52.07628,5.02538,Marketentsterlaan, 3454 WP, De Meern,https://waarneming.nl/observation/372896125/
"POINT (5.02497 52.07646)",52.07646,5.02497,Kloosterpark, 3453 JD, De Meern,https://waarneming.nl/observation/374515849/
"POINT (5.03299 52.31209)",52.31209,5.03299,Boternesserstraat, 1382 EB, Weesp,https://waarneming.nl/observation/372892630/
"POINT (5.24913 52.09327)",52.09327,5.24913,De la Reylaan, 3707 TM, Zeist,https://waarneming.nl/observation/372903018/
"POINT (5.25343 52.08796)",52.08796,5.25343,Boslaan, 3701 CH, Zeist,https://waarneming.nl/observation/372902790/
"POINT (5.26552 52.05123)",52.05123,5.26552,De Kievit, 3972 PG, Driebergen-Rijsenburg,https://waarneming.nl/observation/372900974/
"POINT (5.05661 52.0967)",52.09670,5.05661,Vuurvlindersingel, 3544 DB, Utrecht,https://waarneming.nl/observation/372949347/
"POINT (6.07095 51.99471)",51.99471,6.07095,Wethouder R A Wieggersstraat, 6987 BE, Giesbeek,https://waarneming.nl/observation/373078528/
"POINT (4.68313 52.51646)",52.51646,4.68313,Jean Monnetstraat, 1963 KR, Heemskerk,https://waarneming.nl/observation/373054004/
"POINT (5.16495 52.02509)",52.02509,5.16495,Koningin Julianastraat, 3991 DJ, Houten,https://waarneming.nl/observation/373061818/
"POINT (5.04949 52.30364)",52.30364,5.04949,Utrechtseweg, 1381 GR, Weesp,https://waarneming.nl/observation/373466432/
"POINT (5.46312 52.50872)",52.50872,5.46312,Schouw 46, 8232 BA, Lelystad,https://waarneming.nl/observation/373080068/
"POINT (6.31459 51.97156)",51.97156,6.31459,Eduard Schilderinkstraat, 7002 JD, Doetinchem,https://waarneming.nl/observation/373089270/
"POINT (5.34061 52.04002)",52.04002,5.34061,Julianaweg, 3941 DN, Doorn,https://waarneming.nl/observation/373117679/
"POINT (4.97683 52.3614)",52.36140,4.97683,Jan Olphert Vaillantlaan, 1086 ZA, Amsterdam,https://waarneming.nl/observation/373133110/
"POINT (5.10205 52.10676)",52.10676,5.10205,Laan van Chartroise, 3552 EZ, Utrecht,https://waarneming.nl/observation/373131813/
"POINT (5.54457 52.03977)",52.03977,5.54457,Koningsschot, 3905 PP, Veenendaal,https://waarneming.nl/observation/373132305/
"POINT (5.12993 52.08056)",52.08056,5.12993,Zenithstraat, 3582 PK, Utrecht,https://waarneming.nl/observation/373159225/
"POINT (5.22949 51.75463)",51.75463,5.22949,Achterstraat, 5324 JR, Ammerzoden,https://waarneming.nl/observation/373192981/
"POINT (5.44324 52.12777)",52.12777,5.44324,Cohensteeg, 3834 XD, Leusden,https://waarneming.nl/observation/373271778/
"POINT (4.99109 52.12264)",52.12264,4.99109,Wethouder de Greeflaan, 3455 SB, Haarzuilens,https://waarneming.nl/observation/373278994/
"POINT (6.06432 51.93631)",51.93631,6.06432,Arnhemseweg, 6904 KV, Zevenaar,https://waarneming.nl/observation/373334789/
"POINT (5.33954 52.00563)",52.00563,5.33954,Langbroekerdijk, 3947 BL, Langbroek,https://waarneming.nl/observation/373403528/
"POINT (4.93609 52.3454)",52.34540,4.93609,Kruislaan, 1097 GR, Amsterdam,https://waarneming.nl/observation/373394170/
"POINT (5.42272 52.25768)",52.25768,5.42272,Laakse Hoek, 3861 ME, Zeewolde,https://waarneming.nl/observation/374138817/
"POINT (5.25342 52.11589)",52.11589,5.25342,Ruysdaellaan, 3712 AS, Huis ter Heide,https://waarneming.nl/observation/373433777/
"POINT (4.94839 52.39666)",52.39666,4.94839,Jisperveldstraat, 1024 AA, Zunderdorp,https://waarneming.nl/observation/373405714/
"POINT (6.26426 51.90403)",51.90403,6.26426,Majellastraat, 7038 GD, Zeddam,https://waarneming.nl/observation/373536086/
"POINT (5.43609 52.01052)",52.01052,5.43609,Schermlaan, 3956 VK, Leersum,https://waarneming.nl/observation/373553568/
"POINT (5.92789 51.93533)",51.93533,5.92789,Blauwenburcht, 6852 NS, Huissen,https://waarneming.nl/observation/373540371/
"POINT (4.75822 52.25533)",52.25533,4.75822,Kudelstaartseweg, 1431 GA, Aalsmeer,https://waarneming.nl/observation/373567027/
"POINT (5.34986 52.0261)",52.02610,5.34986,Schaffelaarslaantje, 3941 MM, Doorn,https://waarneming.nl/observation/373595667/
"POINT (4.8381 52.64947)",52.64947,4.83810,Mijzenpad, 1705 BM, Heerhugowaard,https://waarneming.nl/observation/373589494/
"POINT (5.67898 52.00844)",52.00844,5.67898,Vossenweg, 6721 BM, Bennekom,https://waarneming.nl/observation/373619224/
"POINT (6.03365 52.00424)",52.00424,6.03365,Steenbakkersweg, 6991 EN, Rheden,https://waarneming.nl/observation/373681779/
"POINT (5.24574 52.28127)",52.28127,5.24574,Woensbergweg, 1261 AL, Blaricum,https://waarneming.nl/observation/373705512/
"POINT (5.47047 52.53835)",52.53835,5.47047,Veldweg, 8231 SB, Lelystad,https://waarneming.nl/observation/373740943/
"POINT (5.12096 52.06366)",52.06366,5.12096,Camminghaplantsoen, 3525 CD, Utrecht,https://waarneming.nl/observation/373722110/
"POINT (4.54853 52.36701)",52.36701,4.54853,Kennemerweg, 2042 XT, Zandvoort,https://waarneming.nl/observation/373764097/
"POINT (5.96686 51.98655)",51.98655,5.96686,Hazepad, 6882 EJ, Velp,https://waarneming.nl/observation/373829008/
"POINT (5.2362 52.09393)",52.09393,5.23620,Jacob Catslaan, 3705 BR, Zeist,https://waarneming.nl/observation/373838857/
"POINT (5.23321 52.0928)",52.09280,5.23321,Nicolaas Beetslaan, 3705 SN, Zeist,https://waarneming.nl/observation/373838958/
"POINT (5.23372 52.09242)",52.09242,5.23372,Nicolaas Beetslaan, 3705 SN, Zeist,https://waarneming.nl/observation/373817135/
"POINT (5.12101 51.98388)",51.98388,5.12101,Hoevenweg, 4125 RT, Hagestein,https://waarneming.nl/observation/373833575/
"POINT (5.53208 52.02986)",52.02986,5.53208,Goudvink, 3906 AA, Veenendaal,https://waarneming.nl/observation/373857038/
"POINT (5.53155 52.0299)",52.02990,5.53155,Goudvink, 3906 AL, Veenendaal,https://waarneming.nl/observation/373887590/
"POINT (5.32975 51.74748)",51.74748,5.32975,Hoenzadrielsedijk, 5333 PB, Hoenzadriel,https://waarneming.nl/observation/373950636/
"POINT (4.95472 52.03886)",52.03886,4.95472,Bovenkerkweg, 3417 RP, Montfoort,https://waarneming.nl/observation/373977827/
"POINT (6.35663 51.88471)",51.88471,6.35663,Hoofdstraat, 7076 BB, Varsselder,https://waarneming.nl/observation/374004987/
"POINT (5.74365 51.87227)",51.87227,5.74365,Schoolpad, 6644 CP, Ewijk,https://waarneming.nl/observation/374044001/
"POINT (5.56048 52.01874)",52.01874,5.56048,Duizend Roeden, 3901 KA, Veenendaal,https://waarneming.nl/observation/374030622/
"POINT (5.23761 52.26115)",52.26115,5.23761,Schapendrift, 1261 GW, Blaricum,https://waarneming.nl/observation/374091788/
"POINT (4.60205 52.36404)",52.36404,4.60205,Asterlaan, 2111 BJ, Aerdenhout,https://waarneming.nl/observation/374062181/
"POINT (5.74328 51.87191)",51.87191,5.74328,Schoolpad, 6644 CP, Ewijk,https://waarneming.nl/observation/374043032/
"POINT (5.79709 52.21473)",52.21473,5.79709,Grevenhout, 3888 NR, Uddel,https://waarneming.nl/observation/374043028/
"POINT (4.94237 51.97096)",51.97096,4.94237,Rembrandtlaan, 3411 GZ, Lopik,https://waarneming.nl/observation/374047407/
"POINT (4.9417 51.97167)",51.97167,4.94170,Adriaen van Ostadelaan, 3411 GZ, Lopik,https://waarneming.nl/observation/374047826/
"POINT (5.34391 51.80142)",51.80142,5.34391,Slotselaan, 5328 ER, Rossum,https://waarneming.nl/observation/374099162/
"POINT (5.49159 52.52731)",52.52731,5.49159,Zoompad, 8223 WG, Lelystad,https://waarneming.nl/observation/374138263/
"POINT (4.69049 52.51307)",52.51307,4.69049,De Zevenhoeven, 1963 SC, Heemskerk,https://waarneming.nl/observation/374076638/
"POINT (5.32099 52.13036)",52.13036,5.32099,Amersfoortsestraat, 3769 AM, Soesterberg,https://waarneming.nl/observation/374080545/
"POINT (5.33961 51.97524)",51.97524,5.33961,Steenstraat, 3961 VP, Wijk bij Duurstede,https://waarneming.nl/observation/374092323/
"POINT (5.99318 52.21828)",52.21828,5.99318,Kruizemuntstraat, 7322 LS, Apeldoorn,https://waarneming.nl/observation/374359899/
"POINT (4.82447 52.3133)",52.31330,4.82447,Nieuwe Meerlaan, 1182 DB, Amstelveen,https://waarneming.nl/observation/374778333/
"POINT (6.47191 51.86367)",51.86367,6.47191,Beggelderdijk, 7091 HK, Dinxperlo,https://waarneming.nl/observation/374205821/
"POINT (6.36128 51.88758)",51.88758,6.36128,Eusterke, 7076 BE, Varsselder,https://waarneming.nl/observation/374436022/
"POINT (5.27361 51.88933)",51.88933,5.27361,Lingedijk, 4196 HC, Tricht,https://waarneming.nl/observation/374775509/
"POINT (5.43086 52.13335)",52.13335,5.43086,Viltroos, 3831 CH, Leusden,https://waarneming.nl/observation/374371204/
"POINT (5.26386 51.89166)",51.89166,5.26386,Bulkhof, 4196 BA, Tricht,https://waarneming.nl/observation/374369337/
"POINT (4.69902 52.66519)",52.66519,4.69902,Studler van Surcklaan, 1861 MA, Bergen,https://waarneming.nl/observation/374426903/
"POINT (5.06513 52.32186)",52.32186,5.06513,Lange Muiderweg, 1398 PB, Muiden,https://waarneming.nl/observation/374463672/
"POINT (5.05367 52.07818)",52.07818,5.05367,Molensteijn, 3454 PT, De Meern,https://waarneming.nl/observation/375143055/
"POINT (4.99774 52.43431)",52.43431,4.99774,Burgemeester P. Ph. Paulplantsoen, 1151 BR, Broek in Waterland,https://waarneming.nl/observation/374515104/
"POINT (4.88868 52.09214)",52.09214,4.88868,Kievitstraat, 3443 BG, Woerden,https://waarneming.nl/observation/374489848/
"POINT (5.44611 52.13772)",52.13772,5.44611,Elatinehof, 3831 WX, Leusden,https://waarneming.nl/observation/374525764/
"POINT (5.35682 51.78785)",51.78785,5.35682,Moleneind, 5335 LC, Alem,https://waarneming.nl/observation/374594892/
"POINT (5.41215 52.0561)",52.05610,5.41215,Ridder Fulcolaan, 3953 BW, Maarsbergen,https://waarneming.nl/observation/374620922/
"POINT (5.22967 51.78611)",51.78611,5.22967,Molenstraat, 5314 BX, Bruchem,https://waarneming.nl/observation/374633206/
"POINT (5.26708 52.09902)",52.09902,5.26708,Cicerolaan, 3707 ZM, Zeist,https://waarneming.nl/observation/374648256/
"POINT (5.41337 52.08426)",52.08426,5.41337,Schoolstraat, 3931 HX, Woudenberg,https://waarneming.nl/observation/374639613/
"POINT (5.56983 52.03625)",52.03625,5.56983,Handjesgras, 3902 RS, Veenendaal,https://waarneming.nl/observation/374637937/
"POINT (5.79045 51.81381)",51.81381,5.79045,Meijhorst, 6537 KM, Nijmegen,https://waarneming.nl/observation/374731243/
"POINT (4.88021 52.31013)",52.31013,4.88021,Oostelijk Halfrond, 1183 GB, Amstelveen,https://waarneming.nl/observation/374678016/
"POINT (5.05973 52.08804)",52.08804,5.05973,Tweede Oosterparklaan, 3544 AV, Utrecht,https://waarneming.nl/observation/374681842/
"POINT (5.22101 52.08574)",52.08574,5.22101,Nijenheim, 3704 SC, Zeist,https://waarneming.nl/observation/374682859/
"POINT (6.56777 52.06736)",52.06736,6.56777,Klunt, 7156 MV, Beltrum,https://waarneming.nl/observation/374687578/
"POINT (5.26754 52.09896)",52.09896,5.26754,Cicerolaan, 3707 ZM, Zeist,https://waarneming.nl/observation/374700138/
"POINT (4.83765 52.3831)",52.38310,4.83765,Harry Koningsbergerstraat, 1063 AD, Amsterdam,https://waarneming.nl/observation/374696548/
"POINT (5.22528 52.40628)",52.40628,5.22528,Trekvogelpad, 1332 CP, Almere,https://waarneming.nl/observation/375087955/
"POINT (5.30013 51.88425)",51.88425,5.30013,Burgemeester Verweijlaan, 4191 XG, Geldermalsen,https://waarneming.nl/observation/374725208/
"POINT (5.22222 52.40695)",52.40695,5.22222,Lepelaarpad, 1316 AM, Almere,https://waarneming.nl/observation/374751111/
"POINT (5.69935 52.51666)",52.51666,5.69935,De Bredase Hunt, 8252 JX, Dronten,https://waarneming.nl/observation/374798463/
"POINT (5.267 52.28474)",52.28474,5.26700,Raat, 1261 MA, Blaricum,https://waarneming.nl/observation/374772959/
"POINT (5.74108 52.71475)",52.71475,5.74108,Donaustraat, 8303 WL, Emmeloord,https://waarneming.nl/observation/374797368/
"POINT (4.68984 52.54929)",52.54929,4.68984,Korte Brakersweg, 1902 MH, Castricum,https://waarneming.nl/observation/374842156/
"POINT (5.24245 52.10308)",52.10308,5.24245,Jacob Jan Hamelinklaan, 3705 PD, Zeist,https://waarneming.nl/observation/374841704/
"POINT (4.92347 52.34457)",52.34457,4.92347,Rosendaalstraat, 1097 MR, Amsterdam,https://waarneming.nl/observation/374822514/
"POINT (5.09499 51.81609)",51.81609,5.09499,Vrijheidslaan, 5306 BL, Brakel,https://waarneming.nl/observation/374839339/
"POINT (5.24414 52.10239)",52.10239,5.24414,Vrijheidsplein, 3705 PR, Zeist,https://waarneming.nl/observation/374834927/
"POINT (6.52627 52.12124)",52.12124,6.52627,Nobelstraat, 7271 VD, Borculo,https://waarneming.nl/observation/374840837/
"POINT (6.05769 52.11106)",52.11106,6.05769,Molenaarserf, 6961 NE, Eerbeek,https://waarneming.nl/observation/374862302/
"POINT (5.38422 52.16662)",52.16662,5.38422,Kanaalweg, 3813 BR, Amersfoort,https://waarneming.nl/observation/375102935/
"POINT (5.11971 52.06819)",52.06819,5.11971,Julianaweg, 3523 XJ, Utrecht,https://waarneming.nl/observation/375350148/
"POINT (5.11812 52.07042)",52.07042,5.11812,Abraham Keerstraat, 3523 KM, Utrecht,https://waarneming.nl/observation/374983540/
"POINT (5.28297 52.0566)",52.05660,5.28297,Park Sparrendaal, 3971 SR, Driebergen-Rijsenburg,https://waarneming.nl/observation/375011728/
"POINT (5.34642 52.03884)",52.03884,5.34642,Amersfoortseweg, 3941 EN, Doorn,https://waarneming.nl/observation/375013783/
"POINT (5.26863 51.89093)",51.89093,5.26863,Nieuwsteeg, 4196 AK, Tricht,https://waarneming.nl/observation/375070594/
"POINT (5.83584 51.91433)",51.91433,5.83584,Kievitshof, 6662 ZL, Elst,https://waarneming.nl/observation/375046750/
"POINT (5.26367 51.89064)",51.89064,5.26367,Laan van Crayestein, 4196 HK, Tricht,https://waarneming.nl/observation/375069660/
"POINT (5.22704 52.26946)",52.26946,5.22704,Onder den Dael, 1261 CN, Blaricum,https://waarneming.nl/observation/375117660/
"POINT (5.94549 52.2102)",52.21020,5.94549,Schaapweg, 7312 AN, Apeldoorn,https://waarneming.nl/observation/375629655/
"POINT (5.92783 51.94208)",51.94208,5.92783,Dissel, 6852 DP, Huissen,https://waarneming.nl/observation/375154305/
"POINT (4.866 52.0781)",52.07810,4.86600,IJsseloord, 3448 VE, Woerden,https://waarneming.nl/observation/375164194/
"POINT (5.10708 52.03827)",52.03827,5.10708,De Malapertweg, 3439 MJ, Nieuwegein,https://waarneming.nl/observation/375171367/
"POINT (4.67242 52.43775)",52.43775,4.67242,Oostbroekerweg, 1981 LR, Velsen-Zuid,https://waarneming.nl/observation/375209867/
"POINT (4.67209 52.43815)",52.43815,4.67209,Oostbroekerweg, 1981 LR, Velsen-Zuid,https://waarneming.nl/observation/375214294/
"POINT (5.11473 52.09934)",52.09934,5.11473,Gietershof, 3514 BA, Utrecht,https://waarneming.nl/observation/375212377/
"POINT (5.88827 51.8347)",51.83470,5.88827,Cipresstraat, 6523 HM, Nijmegen,https://waarneming.nl/observation/375711668/
"POINT (5.17597 52.27023)",52.27023,5.17597,Ceintuurbaan, 1403 AH, Bussum,https://waarneming.nl/observation/375304027/
"POINT (5.26671 52.25235)",52.25235,5.26671,Kerkstraat, 3755 CK, Eemnes,https://waarneming.nl/observation/375349156/
"POINT (5.87197 51.81544)",51.81544,5.87197,Parkzoom, 6525 PC, Nijmegen,https://waarneming.nl/observation/375377044/
"POINT (5.43716 52.1422)",52.14220,5.43716,Liniedijk, 3831 WD, Leusden,https://waarneming.nl/observation/375383187/
"POINT (5.26703 52.28499)",52.28499,5.26703,Raat, 1261 MA, Blaricum,https://waarneming.nl/observation/375399428/
"POINT (5.13803 52.26788)",52.26788,5.13803,Zuidermeent, 1218 GB, Hilversum,https://waarneming.nl/observation/375417334/
"POINT (5.27372 52.06266)",52.06266,5.27372,Loolaan, 3971 PP, Driebergen-Rijsenburg,https://waarneming.nl/observation/375455078/
"POINT (4.66896 52.72219)",52.72219,4.66896,Molenpad, 1873 HZ, Groet,https://waarneming.nl/observation/375484284/
"POINT (6.00403 52.22654)",52.22654,6.00403,Hohenheimstraat, 7323 RP, Apeldoorn,https://waarneming.nl/observation/375625075/
"POINT (5.12778 52.05646)",52.05646,5.12778,Rijksweg 12, 3524 JE, Utrecht,https://waarneming.nl/observation/375530724/
"POINT (5.11675 52.05996)",52.05996,5.11675,Musketierlaan, 3525 GX, Utrecht,https://waarneming.nl/observation/375528170/
"POINT (6.29612 51.96268)",51.96268,6.29612,Willem de Zwijgerstraat, 7001 GG, Doetinchem,https://waarneming.nl/observation/375646140/
"POINT (5.11716 52.20718)",52.20718,5.11716,Oud-Loosdrechtsedijk, 1231 NB, Nieuw-Loosdrecht,https://waarneming.nl/observation/375565730/
"POINT (5.98876 52.4577)",52.45770,5.98876,Gerstakker, 8091 NB, Wezep,https://waarneming.nl/observation/375630071/
"POINT (5.00962 52.16137)",52.16137,5.00962,Straatweg, 3621 BD, Breukelen,https://waarneming.nl/observation/376086740/
"POINT (5.47673 51.99854)",51.99854,5.47673,Veenseweg, 3958 ER, Amerongen,https://waarneming.nl/observation/375642581/
"POINT (6.63406 52.09563)",52.09563,6.63406,Olden Eibergsedijk, 7151 NB, Eibergen,https://waarneming.nl/observation/375615180/
"POINT (6.57876 51.92654)",51.92654,6.57876,Hogestraat, 7122 BN, Aalten,https://waarneming.nl/observation/375772588/
"POINT (6.47571 51.8926)",51.89260,6.47571,Iemenhorst, 7084 BC, Breedenbroek,https://waarneming.nl/observation/375688038/
"POINT (5.20921 52.07198)",52.07198,5.20921,Albert Nijlandpad, 3981 HR, Bunnik,https://waarneming.nl/observation/375724592/
"POINT (4.72412 53.07454)",53.07454,4.72412,,1791 PP, De Koog,https://waarneming.nl/observation/375734603/
"POINT (5.08418 51.89926)",51.89926,5.08418,Wederiklaan, 4143 CK, Leerdam,https://waarneming.nl/observation/375737303/
"POINT (4.85198 52.6673)",52.66730,4.85198,Parklaan, 1701 GS, Heerhugowaard,https://waarneming.nl/observation/375752565/
"POINT (5.56845 52.02941)",52.02941,5.56845,Gersteveld, 3902 EN, Veenendaal,https://waarneming.nl/observation/376881815/
"POINT (5.23675 52.14428)",52.14428,5.23675,Meester Willemsenlaan, 3734 JE, Den Dolder,https://waarneming.nl/observation/375769352/
"POINT (5.4947 51.92244)",51.92244,5.49470,Gelderse Singel, 4033 KE, Lienden,https://waarneming.nl/observation/375779092/
"POINT (5.48239 52.21566)",52.21566,5.48239,Van Oldenbarneveltstraat, 3862 SG, Nijkerk,https://waarneming.nl/observation/375782158/
"POINT (5.93003 52.19772)",52.19772,5.93003,Govert Flinckstraat, 7312 RR, Apeldoorn,https://waarneming.nl/observation/375821649/
"POINT (5.71163 51.80298)",51.80298,5.71163,Zesakkers, 6605 TG, Wijchen,https://waarneming.nl/observation/376112356/
"POINT (5.89675 52.00531)",52.00531,5.89675,Schelmseweg, 6816 SH, Arnhem,https://waarneming.nl/observation/375932428/
"POINT (5.24947 52.09432)",52.09432,5.24947,Eikenlaan, 3707 SE, Zeist,https://waarneming.nl/observation/376048073/
"POINT (5.77287 52.38167)",52.38167,5.77287,Beethovenlaan, 8071 VH, Nunspeet,https://waarneming.nl/observation/376089228/
"POINT (5.44371 52.14033)",52.14033,5.44371,Backenhagen, 3831 BR, Leusden,https://waarneming.nl/observation/376069641/
"POINT (5.46603 52.00316)",52.00316,5.46603,Hazeleger, 3958 EM, Amerongen,https://waarneming.nl/observation/376134706/
"POINT (5.04757 52.26112)",52.26112,5.04757,Blijklaan, 1394 KA, Nederhorst den Berg,https://waarneming.nl/observation/376168453/
"POINT (6.29742 51.96319)",51.96319,6.29742,Willem de Zwijgerstraat, 7001 GH, Doetinchem,https://waarneming.nl/observation/376198066/
"POINT (5.07398 52.11678)",52.11678,5.07398,Minister Talmastraat, 3555 GH, Utrecht,https://waarneming.nl/observation/376221615/
"POINT (4.92146 52.37266)",52.37266,4.92146,Kattenburgerkade, 1018 JW, Amsterdam,https://waarneming.nl/observation/376377837/
"POINT (5.89714 52.00489)",52.00489,5.89714,De Wolflaan, 6815 HJ, Arnhem,https://waarneming.nl/observation/376193225/
"POINT (5.63878 52.03987)",52.03987,5.63878,Catharinadaal, 6715 KD, Ede,https://waarneming.nl/observation/376274102/
"POINT (5.04658 52.02389)",52.02389,5.04658,Utrechtseweg, 3402 PL, IJsselstein,https://waarneming.nl/observation/376210699/
"POINT (5.05381 52.07852)",52.07852,5.05381,Molensteijn, 3454 PT, De Meern,https://waarneming.nl/observation/377321645/
"POINT (5.46513 52.08174)",52.08174,5.46513,Stationsweg, 3925 CG, Scherpenzeel,https://waarneming.nl/observation/376361234/
"POINT (5.31143 52.17657)",52.17657,5.31143,Lange Brinkweg, 3764 AE, Soest,https://waarneming.nl/observation/376383423/
"POINT (5.46335 52.00342)",52.00342,5.46335,Jachtlaan, 3958 EJ, Amerongen,https://waarneming.nl/observation/376280481/
"POINT (5.49446 52.08208)",52.08208,5.49446,Burgemeester de Kortesingel, 3925 TN, Scherpenzeel,https://waarneming.nl/observation/376350477/
"POINT (5.05124 52.02135)",52.02135,5.05124,Utrechtseweg, 3402 PL, IJsselstein,https://waarneming.nl/observation/376394277/
"POINT (5.57032 52.02874)",52.02874,5.57032,Grote Beer, 3902 VA, Veenendaal,https://waarneming.nl/observation/376482703/
"POINT (4.67185 52.43784)",52.43784,4.67185,Oostbroekerweg, 1981 LR, Velsen-Zuid,https://waarneming.nl/observation/376398125/
"POINT (5.53622 52.0341)",52.03410,5.53622,Bomas, 3905 WG, Veenendaal,https://waarneming.nl/observation/376397997/
"POINT (5.38133 52.13942)",52.13942,5.38133,Pascalstraat, 3817 JK, Amersfoort,https://waarneming.nl/observation/376433866/
"POINT (5.76495 52.44083)",52.44083,5.76495,Spijkweg, 8256 RJ, Biddinghuizen,https://waarneming.nl/observation/376445176/
"POINT (6.57393 51.92216)",51.92216,6.57393,Jan van Galenstraat, 7122 VR, Aalten,https://waarneming.nl/observation/376467550/
"POINT (5.42545 52.13969)",52.13969,5.42545,Larikslaan, 3833 AM, Leusden,https://waarneming.nl/observation/376591474/
"POINT (5.24453 52.0851)",52.08510,5.24453,Woudenbergseweg, 3701 BB, Zeist,https://waarneming.nl/observation/376602283/
"POINT (5.13371 52.10616)",52.10616,5.13371,Cohenlaan, 3571 XG, Utrecht,https://waarneming.nl/observation/376510763/
"POINT (5.19963 52.0957)",52.09570,5.19963,Utrechtseweg, 3732 HA, De Bilt,https://waarneming.nl/observation/376578702/
"POINT (5.68323 52.44723)",52.44723,5.68323,Sportlaan, 8256 CE, Biddinghuizen,https://waarneming.nl/observation/376584924/
"POINT (5.05095 52.14074)",52.14074,5.05095,Doctor Plesmanlaan, 3601 AC, Maarssen,https://waarneming.nl/observation/376562023/
"POINT (5.41865 52.13033)",52.13033,5.41865,Haverland, 3833 CV, Leusden,https://waarneming.nl/observation/376592108/
"POINT (5.59512 52.25421)",52.25421,5.59512,Luitgardestraat, 3882 EH, Putten,https://waarneming.nl/observation/376692385/
"POINT (5.75637 51.98164)",51.98164,5.75637,Parallelweg, 6866 CD, Heelsum,https://waarneming.nl/observation/376626452/
"POINT (5.29331 52.15903)",52.15903,5.29331,Gentiaanlaan, 3768 BL, Soest,https://waarneming.nl/observation/376674887/
"POINT (6.12553 51.93283)",51.93283,6.12553,Spechtstraat, 6942 KT, Didam,https://waarneming.nl/observation/376999292/
"POINT (5.24383 52.0734)",52.07340,5.24383,Bunsinglaan, 3708 JB, Zeist,https://waarneming.nl/observation/376965436/
"POINT (5.24155 52.41196)",52.41196,5.24155,Damsluisweg, 1332 ED, Almere,https://waarneming.nl/observation/376828182/
"POINT (4.90841 52.09189)",52.09189,4.90841,Mr. Joekespad, 3445 TN, Woerden,https://waarneming.nl/observation/376898722/
"POINT (4.8625 52.08976)",52.08976,4.86250,A.C. Willinkstraat, 3443 VX, Woerden,https://waarneming.nl/observation/376900269/
"POINT (6.06676 52.08928)",52.08928,6.06676,Maria Stuartlaan, 6961 GB, Eerbeek,https://waarneming.nl/observation/377001971/
"POINT (5.54148 52.02071)",52.02071,5.54148,Adriaen van Ostadelaan, 3904 TJ, Veenendaal,https://waarneming.nl/observation/377015231/
"POINT (5.00844 52.08577)",52.08577,5.00844,Ziende, 3453 MK, De Meern,https://waarneming.nl/observation/376993004/
"POINT (5.5411 52.02077)",52.02077,5.54110,Adriaen van Ostadelaan, 3904 TL, Veenendaal,https://waarneming.nl/observation/377028683/
"POINT (5.00793 52.0858)",52.08580,5.00793,Ziende, 3453 MN, De Meern,https://waarneming.nl/observation/376993292/
"POINT (4.86696 52.34429)",52.34429,4.86696,Stadionkade, 1076 BK, Amsterdam,https://waarneming.nl/observation/377022912/
"POINT (4.95988 52.3416)",52.34160,4.95988,Paulus Emtinckweg, 1111 BV, Diemen,https://waarneming.nl/observation/377029324/
"POINT (5.22642 52.29701)",52.29701,5.22642,Jacob van Wassenaerstraat, 1272 BP, Huizen,https://waarneming.nl/observation/377028613/
"POINT (4.79046 52.33208)",52.33208,4.79046,Oudheusdenstraat, 1171 JL, Badhoevedorp,https://waarneming.nl/observation/377086297/
"POINT (5.86216 51.83414)",51.83414,5.86216,Lombokstraat, 6524 LR, Nijmegen,https://waarneming.nl/observation/377052854/
"POINT (5.34685 52.03019)",52.03019,5.34685,Sitiopark, 3941 PR, Doorn,https://waarneming.nl/observation/377057234/
"POINT (4.6771 52.30211)",52.30211,4.67710,Lutulistraat, 2131 TG, Hoofddorp,https://waarneming.nl/observation/377113849/
"POINT (4.597 52.31777)",52.31777,4.59700,Zandlaan, 2121 GB, Bennebroek,https://waarneming.nl/observation/377128505/
"POINT (4.99969 51.93369)",51.93369,4.99969,Zederikkade, 4231 CC, Lexmond,https://waarneming.nl/observation/377142095/
"POINT (5.2834 52.0492)",52.04920,5.28340,Engweg, 3972 JC, Driebergen-Rijsenburg,https://waarneming.nl/observation/377144726/
"POINT (5.52386 52.33017)",52.33017,5.52386,Krachtenveld, 3893 CD, Zeewolde,https://waarneming.nl/observation/377178672/
"POINT (5.01471 52.15944)",52.15944,5.01471,Straatweg, 3621 BP, Breukelen,https://waarneming.nl/observation/377541602/
"POINT (5.5427 52.02828)",52.02828,5.54270,Prins Willem-Alexanderpark, 3905 DL, Veenendaal,https://waarneming.nl/observation/377306703/
"POINT (5.8031 51.81964)",51.81964,5.80310,Zwanenveld, 6538 NK, Nijmegen,https://waarneming.nl/observation/377243516/
"POINT (4.63892 52.37403)",52.37403,4.63892,Klaverstraat, 2012 XM, Haarlem,https://waarneming.nl/observation/377247406/
"POINT (5.27266 52.05317)",52.05317,5.27266,Valentijn, 3972 XJ, Driebergen-Rijsenburg,https://waarneming.nl/observation/377223209/
"POINT (5.41186 52.44355)",52.44355,5.41186,Praamweg, 8218 AA, Lelystad,https://waarneming.nl/observation/377327614/
"POINT (4.8795 52.07456)",52.07456,4.87950,Hollandbaan, 3442 AG, Woerden,https://waarneming.nl/observation/377261673/
"POINT (5.1277 52.06357)",52.06357,5.12770,Gravelpad, 3524 WD, Utrecht,https://waarneming.nl/observation/377252525/
"POINT (5.19257 51.9224)",51.92240,5.19257,Kooiweg Oost, 4107 LT, Culemborg,https://waarneming.nl/observation/377298725/
"POINT (5.2487 52.02449)",52.02449,5.24870,Beverweertseweg, 3985 RD, Werkhoven,https://waarneming.nl/observation/377278283/
"POINT (5.1725 51.88987)",51.88987,5.17250,Raadsteeg, 4156 AN, Rumpt,https://waarneming.nl/observation/377358891/
"POINT (5.8036 51.81958)",51.81958,5.80360,Zwanenveld, 6538 NH, Nijmegen,https://waarneming.nl/observation/377343461/
"POINT (5.28379 52.04947)",52.04947,5.28379,Parklaan, 3972 JZ, Driebergen-Rijsenburg,https://waarneming.nl/observation/377354433/
"POINT (5.31519 52.07887)",52.07887,5.31519,Schooldwarsweg, 3711 BN, Austerlitz,https://waarneming.nl/observation/377347563/
"POINT (5.37946 52.20446)",52.20446,5.37946,Sikkelkruid, 3824 PN, Amersfoort,https://waarneming.nl/observation/377332093/
"POINT (5.6921 51.96839)",51.96839,5.69210,Bosrandweg, 6703 EB, Wageningen,https://waarneming.nl/observation/377352230/
