WKT,latitude,longitude,street,postalcode,city,description
"POINT (5.78745 50.93567)",50.93567,5.78745,Maastrichterlaan, 6191 RT, Geverik,https://waarneming.nl/observation/336864477/
"POINT (5.81342 51.17313)",51.17313,5.81342,Bosserstraat, 6014 RD, Ittervoort,https://waarneming.nl/observation/339235411/
"POINT (5.96942 50.91131)",50.91131,5.96942,Bergerodeweg, 6414 BG, Heerlen,https://waarneming.nl/observation/337268293/
"POINT (5.97009 51.09011)",51.09011,5.97009,Kerkweg, 6105 CC, Maria Hoop,https://waarneming.nl/observation/337197805/
"POINT (5.78593 51.26893)",51.26893,5.78593,Visdijk, 6034 SZ, Nederweert-Eind,https://waarneming.nl/observation/337430197/
"POINT (5.86043 51.00798)",51.00798,5.86043,Vouerweg, 6136 AM, Sittard,https://waarneming.nl/observation/337459072/
"POINT (5.788 51.26866)",51.26866,5.78800,Visdijk, 6034 SZ, Nederweert-Eind,https://waarneming.nl/observation/338447177/
"POINT (5.98791 50.87322)",50.87322,5.98791,Parmentierstraat, 6417 AX, Heerlen,https://waarneming.nl/observation/338478926/
"POINT (5.95914 50.87739)",50.87739,5.95914,Autosnelweg A79, 6419 SE, Heerlen,https://waarneming.nl/observation/339294408/
"POINT (5.83346 50.97183)",50.97183,5.83346,Rijksweg Noord, 6162 AB, Geleen,https://waarneming.nl/observation/338588054/
"POINT (6.10737 51.52207)",51.52207,6.10737,Bergerhofweg, 5863 AH, Blitterswijck,https://waarneming.nl/observation/338784979/
"POINT (5.85082 50.95548)",50.95548,5.85082,Sweikhuizervoetpad, 6174 RH, Sweikhuizen,https://waarneming.nl/observation/339121128/
"POINT (5.90337 50.92884)",50.92884,5.90337,Tulpstraat, 6361 JD, Vaesrade,https://waarneming.nl/observation/339097977/
"POINT (6.12286 51.31389)",51.31389,6.12286,Pastoor Hermensstraat, 5951 GB, Belfeld,https://waarneming.nl/observation/339558870/
"POINT (6.01182 51.54302)",51.54302,6.01182,Zuiderbergweg, 5807 EM, Oostrum,https://waarneming.nl/observation/340004993/
"POINT (5.99422 50.87092)",50.87092,5.99422,Ruth Firststraat, 6418 PM, Heerlen,https://waarneming.nl/observation/340116927/
"POINT (5.69913 50.85267)",50.85267,5.69913,Franciscus Romanusweg, 6221 AH, Maastricht,https://waarneming.nl/observation/340516308/
"POINT (5.77886 50.90196)",50.90196,5.77886,Klein Berghemmerweg, 6235 AJ, Ulestraten,https://waarneming.nl/observation/378096527/
"POINT (5.88259 51.3111)",51.31110,5.88259,Aan de Heibloem, 6089 NE, Heythuysen,https://waarneming.nl/observation/341886033/
"POINT (5.98912 51.52733)",51.52733,5.98912,D'n Herk, 5803 DM, Venray,https://waarneming.nl/observation/342108693/
"POINT (5.72324 50.87258)",50.87258,5.72324,Mariënwaard, 6222 AM, Maastricht,https://waarneming.nl/observation/342265172/
"POINT (5.81066 51.24619)",51.24619,5.81066,Koeldijk, 6091 PX, Leveroy,https://waarneming.nl/observation/343378860/
"POINT (5.67406 50.82804)",50.82804,5.67406,Mergelweg, 6212 XK, Maastricht,https://waarneming.nl/observation/343198643/
"POINT (5.67857 50.82918)",50.82918,5.67857,Van Schaikweg, 6212 XG, Maastricht,https://waarneming.nl/observation/347331382/
"POINT (5.70871 50.82615)",50.82615,5.70871,Gronsvelderweg, 6229 VN, Maastricht,https://waarneming.nl/observation/343786739/
"POINT (5.78574 50.95405)",50.95405,5.78574,Sanderboutlaan, 6181 DN, Catsop,https://waarneming.nl/observation/343825762/
"POINT (5.73387 50.86201)",50.86201,5.73387,Peppelhoven, 6225 GZ, Maastricht,https://waarneming.nl/observation/343820499/
"POINT (5.82189 50.92724)",50.92724,5.82189,Hubertusstraat, 6191 PC, Genhout,https://waarneming.nl/observation/343977762/
"POINT (5.85774 51.01116)",51.01116,5.85774,Brauningerstraat, 6135 JW, Sittard,https://waarneming.nl/observation/344017880/
"POINT (6.18118 51.36404)",51.36404,6.18118,Jan van Broekhuizenstraat, 5913 RX, Blerick,https://waarneming.nl/observation/344131694/
"POINT (6.11548 51.31042)",51.31042,6.11548,Hamarplein, 5951 CD, Belfeld,https://waarneming.nl/observation/344169704/
"POINT (5.73753 51.25458)",51.25458,5.73753,De Vrouwehof, 6004 SL, Weert,https://waarneming.nl/observation/344435330/
"POINT (5.77182 50.94579)",50.94579,5.77182,Pastoor Biermansstraat, 6181 LC, Catsop,https://waarneming.nl/observation/344432623/
"POINT (5.95596 51.52835)",51.52835,5.95596,Biezenvenneke, 5801 HN, Venray,https://waarneming.nl/observation/344652729/
"POINT (5.99151 51.3263)",51.32630,5.99151,Korenbloem, 5988 MC, Helden,https://waarneming.nl/observation/344653289/
"POINT (6.18036 51.38128)",51.38128,6.18036,Jan van Scorelstraat, 5914 TW, Blerick,https://waarneming.nl/observation/344725400/
"POINT (5.97949 50.93578)",50.93578,5.97949,Carel Fabritiusstraat, 6445 XH, Brunssum,https://waarneming.nl/observation/344756651/
"POINT (5.71836 50.77811)",50.77811,5.71836,Veldleeuwerik, 6245 RJ, Mariadorp,https://waarneming.nl/observation/344968739/
"POINT (6.04312 51.41269)",51.41269,6.04312,Van Ulftstraat, 5975 XW, Sevenum,https://waarneming.nl/observation/344990048/
"POINT (5.89165 50.99562)",50.99562,5.89165,Alardstraat, 6132 EV, Sittard,https://waarneming.nl/observation/345065818/
"POINT (5.7452 51.19399)",51.19399,5.74520,Molenweg, 6039 RH, Stramproy,https://waarneming.nl/observation/345150208/
"POINT (5.99566 51.14259)",51.14259,5.99566,Verrelstraat, 6077 GR, Sint Odiliënberg,https://waarneming.nl/observation/345171703/
"POINT (6.04065 51.35474)",51.35474,6.04065,Cederhof, 5993 XG, Maasbree,https://waarneming.nl/observation/345874671/
"POINT (6.02508 51.16059)",51.16059,6.02508,Aldrinerf, 6074 ER, Melick,https://waarneming.nl/observation/345729683/
"POINT (5.97967 50.88294)",50.88294,5.97967,Kortstraat, 6411 GA, Heerlen,https://waarneming.nl/observation/346455536/
"POINT (5.76918 51.04036)",51.04036,5.76918,Heilig Kruisstraat, 6127 CA, Grevenbicht,https://waarneming.nl/observation/345839463/
"POINT (5.68408 51.26327)",51.26327,5.68408,Anjelierstraat, 6002 TP, Weert,https://waarneming.nl/observation/345918096/
"POINT (6.0518 51.36294)",51.36294,6.05180,Van Hatertstraat, 5993 ER, Maasbree,https://waarneming.nl/observation/345848691/
"POINT (5.75108 50.92544)",50.92544,5.75108,Processieweg, 6243 BB, Geulle aan de Maas,https://waarneming.nl/observation/345967260/
"POINT (6.20339 51.35998)",51.35998,6.20339,Frits Peutzstraat, 5915 JB, Venlo,https://waarneming.nl/observation/345922435/
"POINT (5.89909 51.18107)",51.18107,5.89909,Heerbaan, 6097 AZ, Heel,https://waarneming.nl/observation/346061632/
"POINT (5.65569 50.84243)",50.84243,5.65569,Galopiahof, 6215 TM, Maastricht,https://waarneming.nl/observation/346216677/
"POINT (5.97565 50.93434)",50.93434,5.97565,Pelgrimsweg, 6445 XN, Brunssum,https://waarneming.nl/observation/346187345/
"POINT (6.08866 51.28322)",51.28322,6.08866,Kleistekerstraat, 5953 PA, Reuver,https://waarneming.nl/observation/346164607/
"POINT (5.81667 50.82333)",50.82333,5.81667,Bernhardlaan, 6269 CX, Margraten,https://waarneming.nl/observation/346189405/
"POINT (5.71796 51.25378)",51.25378,5.71796,Maaslandlaan, 6004 GC, Weert,https://waarneming.nl/observation/346242198/
"POINT (5.95685 50.94929)",50.94929,5.95685,Florence Nightingalestraat, 6441 HS, Brunssum,https://waarneming.nl/observation/346313624/
"POINT (5.74852 50.92357)",50.92357,5.74852,Graaf Wolter Hoenstraat, 6243 BE, Geulle aan de Maas,https://waarneming.nl/observation/346320819/
"POINT (5.96332 50.90762)",50.90762,5.96332,Van der Scheurstraat, 6413 VE, Heerlen,https://waarneming.nl/observation/346337002/
"POINT (5.92313 50.94414)",50.94414,5.92313,Sjoepevaart, 6436 CK, Amstenrade,https://waarneming.nl/observation/346472525/
"POINT (5.76912 50.96936)",50.96936,5.76912,Dross van Bewerstraat, 6171 JV, Stein,https://waarneming.nl/observation/346500530/
"POINT (5.81656 50.98846)",50.98846,5.81656,Lindenlaan, 6163 AZ, Geleen,https://waarneming.nl/observation/346641943/
"POINT (5.88728 50.91434)",50.91434,5.88728,Pommer, 6361 VB, Nuth,https://waarneming.nl/observation/346814538/
"POINT (5.80644 50.93858)",50.93858,5.80644,Hoolstraat, 6191 TZ, Neerbeek,https://waarneming.nl/observation/346804922/
"POINT (5.94034 50.87932)",50.87932,5.94034,Grachtstraat, 6367 CB, Kunrade,https://waarneming.nl/observation/346908815/
"POINT (5.98299 51.5341)",51.53410,5.98299,Zandbleek, 5804 AZ, Venray,https://waarneming.nl/observation/347175384/
"POINT (5.79419 50.93679)",50.93679,5.79419,Gundelfingenstraat, 6191 KW, Geverik,https://waarneming.nl/observation/346885150/
"POINT (5.79429 50.93708)",50.93708,5.79429,Gundelfingenstraat, 6191 KX, Geverik,https://waarneming.nl/observation/346930563/
"POINT (6.06855 51.15685)",51.15685,6.06855,Antonius Bieleveltstraat, 6075 CS, Herkenbosch,https://waarneming.nl/observation/346991697/
"POINT (5.65247 50.83889)",50.83889,5.65247,Planetenhof, 6215 TZ, Maastricht,https://waarneming.nl/observation/347200496/
"POINT (5.75669 50.92886)",50.92886,5.75669,Hussenbergstraat, 6243 AH, Geulle aan de Maas,https://waarneming.nl/observation/347109919/
"POINT (6.16497 51.41969)",51.41969,6.16497,Oude Heerweg, 5941 EK, Velden,https://waarneming.nl/observation/347168787/
"POINT (5.86796 51.00281)",51.00281,5.86796,Odasingel, 6131 GV, Sittard,https://waarneming.nl/observation/347205123/
"POINT (5.77799 51.03741)",51.03741,5.77799,Stiftstraat, 6127 EL, Grevenbicht,https://waarneming.nl/observation/347314575/
"POINT (5.96445 51.5318)",51.53180,5.96445,Lamersveld, 5801 HD, Venray,https://waarneming.nl/observation/347316396/
"POINT (5.99281 51.5376)",51.53760,5.99281,Vingerhoedskruid, 5803 KT, Venray,https://waarneming.nl/observation/347354720/
"POINT (6.08085 51.53578)",51.53578,6.08085,Meerloseweg, 5861 AB, Wanssum,https://waarneming.nl/observation/347413974/
"POINT (5.78946 51.29911)",51.29911,5.78946,Meester Schakenhof, 6035 CW, Ospel,https://waarneming.nl/observation/347400844/
"POINT (5.8635 50.91854)",50.91854,5.86350,Grijzegrubben, 6361 GL, Nuth,https://waarneming.nl/observation/347431250/
"POINT (5.76824 51.04065)",51.04065,5.76824,Oude Veerstraat, 6127 AR, Grevenbicht,https://waarneming.nl/observation/374441108/
"POINT (6.011 50.90197)",50.90197,6.01100,Willem II-laan, 6371 JC, Landgraaf,https://waarneming.nl/observation/347524756/
"POINT (5.85554 50.89227)",50.89227,5.85554,Aalbekerweg, 6336 AD, Hulsberg,https://waarneming.nl/observation/347538608/
"POINT (5.77404 50.96568)",50.96568,5.77404,A76, 6171 LV, Stein,https://waarneming.nl/observation/347542909/
"POINT (6.15852 51.33212)",51.33212,6.15852,Brachterhof, 5932 XM, Tegelen,https://waarneming.nl/observation/347615051/
"POINT (6.16021 51.49394)",51.49394,6.16021,Aan de Schakel, 5871 AZ, Broekhuizenvorst,https://waarneming.nl/observation/347822784/
"POINT (6.09711 51.5299)",51.52990,6.09711,Windmolenzijweg, 5863 AG, Blitterswijck,https://waarneming.nl/observation/347685074/
"POINT (6.15809 51.33235)",51.33235,6.15809,Brachterhof, 5932 XM, Tegelen,https://waarneming.nl/observation/347740222/
"POINT (5.71414 51.26063)",51.26063,5.71414,Biest, 6001 AT, Weert,https://waarneming.nl/observation/348097819/
"POINT (6.15549 51.34742)",51.34742,6.15549,Geldersebaan, 5931 JP, Tegelen,https://waarneming.nl/observation/348542944/
"POINT (5.72416 51.2421)",51.24210,5.72416,Houtsnip, 6005 KN, Weert,https://waarneming.nl/observation/348020677/
"POINT (5.96992 51.53252)",51.53252,5.96992,De Schans, 5804 XV, Venray,https://waarneming.nl/observation/348043526/
"POINT (6.07841 51.36411)",51.36411,6.07841,Venloseweg, 5993 PD, Maasbree,https://waarneming.nl/observation/348720118/
"POINT (6.02033 51.16246)",51.16246,6.02033,Breidberg, 6074 DG, Melick,https://waarneming.nl/observation/348102111/
"POINT (5.86888 50.97632)",50.97632,5.86888,Constantijnhof, 6151 DP, Munstergeleen,https://waarneming.nl/observation/348073963/
"POINT (6.14693 51.42355)",51.42355,6.14693,De Plaggenhouwer, 5971 LB, Grubbenvorst,https://waarneming.nl/observation/348224245/
"POINT (5.73201 51.256)",51.25600,5.73201,Batavierenstraat, 6004 BR, Weert,https://waarneming.nl/observation/348158694/
"POINT (6.00645 50.82424)",50.82424,6.00645,Zandbergervoetpad, 6351 AK, Bocholtz,https://waarneming.nl/observation/348175189/
"POINT (5.68238 51.23767)",51.23767,5.68238,Lansierlaan, 6006 RJ, Weert,https://waarneming.nl/observation/348195225/
"POINT (6.01954 51.52838)",51.52838,6.01954,Asselberghsstraat, 5807 BR, Oostrum,https://waarneming.nl/observation/348224630/
"POINT (5.74129 51.29167)",51.29167,5.74129,Strateris, 6031 PB, Budschop,https://waarneming.nl/observation/348844546/
"POINT (5.90901 51.14828)",51.14828,5.90901,Stationsweg, 6051 KK, Brachterbeek,https://waarneming.nl/observation/348259741/
"POINT (6.10893 51.31202)",51.31202,6.10893,Maasstraat, 5951 AH, Belfeld,https://waarneming.nl/observation/348437945/
"POINT (5.80737 50.98393)",50.98393,5.80737,Meidoornstraat, 6163 EM, Geleen,https://waarneming.nl/observation/348496274/
"POINT (5.95478 51.23049)",51.23049,5.95478,Kloosterveld, 6081 JE, Haelen,https://waarneming.nl/observation/348438118/
"POINT (6.10909 51.31239)",51.31239,6.10909,Urbanusstraat, 5951 AK, Belfeld,https://waarneming.nl/observation/348490537/
"POINT (5.87051 51.01128)",51.01128,5.87051,Rolandsweg, 6136 BW, Sittard,https://waarneming.nl/observation/348829538/
"POINT (5.99693 51.21332)",51.21332,5.99693,Schilbergsweg, 6041 AN, Roermond,https://waarneming.nl/observation/348918850/
"POINT (6.08683 51.51335)",51.51335,6.08683,Hoofdstraat, 5864 BG, Meerlo,https://waarneming.nl/observation/349056177/
"POINT (5.72119 50.84226)",50.84226,5.72119,Nijverheidsweg, 6227 AL, Maastricht,https://waarneming.nl/observation/349296181/
"POINT (5.89431 51.00035)",51.00035,5.89431,René van Oranjestraat, 6137 HL, Sittard,https://waarneming.nl/observation/349311612/
"POINT (5.8568 51.03614)",51.03614,5.85680,Halfeweg, 6118 DC, Nieuwstadt,https://waarneming.nl/observation/349353567/
"POINT (5.67247 50.8375)",50.83750,5.67247,Cannerweg, 6213 BE, Maastricht,https://waarneming.nl/observation/349374190/
"POINT (6.12526 51.36051)",51.36051,6.12526,Moutzhofweg, 5926 RB, Hout-Blerick,https://waarneming.nl/observation/349516583/
"POINT (5.68192 51.26039)",51.26039,5.68192,Tobbersdijk, 6002 AR, Weert,https://waarneming.nl/observation/350071620/
"POINT (5.69872 51.24249)",51.24249,5.69872,Maria Luytenstraat, 6006 KB, Weert,https://waarneming.nl/observation/349562621/
"POINT (5.71564 50.77905)",50.77905,5.71564,Burgemeester Wijnandsstraat, 6245 HC, Mariadorp,https://waarneming.nl/observation/349617310/
"POINT (6.0182 50.86576)",50.86576,6.01820,Op de Knip, 6467 GP, Kerkrade,https://waarneming.nl/observation/349796711/
"POINT (6.08076 51.35642)",51.35642,6.08076,Dubbroek, 5993 PN, Maasbree,https://waarneming.nl/observation/350011547/
"POINT (5.80553 50.86007)",50.86007,5.80553,Wethouder Meertensstraat, 6325 DB, Vilt,https://waarneming.nl/observation/349744731/
"POINT (5.9307 51.15518)",51.15518,5.93070,Gelreplein, 6067 CX, Linne,https://waarneming.nl/observation/349795324/
"POINT (5.88275 50.84689)",50.84689,5.88275,Valkenburgerweg, 6321 GJ, Wijlre,https://waarneming.nl/observation/349818989/
"POINT (5.88084 51.07069)",51.07069,5.88084,Weg naar Assendonk, 6114 RT, Susteren,https://waarneming.nl/observation/350778791/
"POINT (5.82095 51.08172)",51.08172,5.82095,Steenakker, 6116 CE, Roosteren,https://waarneming.nl/observation/349907995/
"POINT (5.72092 50.84264)",50.84264,5.72092,Nijverheidsweg, 6227 AL, Maastricht,https://waarneming.nl/observation/350046754/
"POINT (5.99778 51.18029)",51.18029,5.99778,Processieweg, 6045 CH, Roermond,https://waarneming.nl/observation/349964312/
"POINT (5.97415 51.1768)",51.17680,5.97415,Jo Calsstraat, 6049 HW, Merum,https://waarneming.nl/observation/350000448/
"POINT (5.8453 51.17665)",51.17665,5.84530,Santfort, 6017 RJ, Thorn,https://waarneming.nl/observation/350074175/
"POINT (5.88343 51.22814)",51.22814,5.88343,Salmenhofweg, 6095 BZ, Baexem,https://waarneming.nl/observation/350060569/
"POINT (5.97552 51.43516)",51.43516,5.97552,Griendtsveenseweg, 5966 PT, America,https://waarneming.nl/observation/350175633/
"POINT (5.90092 51.35106)",51.35106,5.90092,Heufkesweg, 5768 RR, Meijel,https://waarneming.nl/observation/350115682/
"POINT (6.00648 51.14256)",51.14256,6.00648,Reutjesweg, 6077 NB, Sint Odiliënberg,https://waarneming.nl/observation/350170219/
"POINT (5.87482 51.27745)",51.27745,5.87482,Heide, 6093 PA, Heythuysen,https://waarneming.nl/observation/350171322/
"POINT (5.75096 50.88919)",50.88919,5.75096,Pastoor Arnold Somyasingel, 6231 HT, Rothem,https://waarneming.nl/observation/350228137/
"POINT (6.13726 51.33118)",51.33118,6.13726,Kasteellaan, 5932 AG, Tegelen,https://waarneming.nl/observation/350309370/
"POINT (5.94146 50.92448)",50.92448,5.94146,Doctor Martin Luther Kinglaan, 6431 VL, Heerlen,https://waarneming.nl/observation/350442675/
"POINT (5.96382 51.44838)",51.44838,5.96382,Peelheideweg, 5966 PJ, America,https://waarneming.nl/observation/354628980/
"POINT (5.85419 51.25028)",51.25028,5.85419,Onderweg, 6092 NG, Leveroy,https://waarneming.nl/observation/350545052/
"POINT (6.01716 50.90944)",50.90944,6.01716,Aan de Beuk, 6373 AL, Landgraaf,https://waarneming.nl/observation/350616156/
"POINT (5.70685 50.77634)",50.77634,5.70685,Margrietstraat, 6245 CL, Mariadorp,https://waarneming.nl/observation/350636871/
"POINT (6.03881 50.91603)",50.91603,6.03881,Watergraaf, 6374 NP, Landgraaf,https://waarneming.nl/observation/350698033/
"POINT (6.04121 51.19882)",51.19882,6.04121,Maalbroekerdijk, 6042 LS, Asenray,https://waarneming.nl/observation/350908955/
"POINT (5.9867 50.77422)",50.77422,5.98670,Holset, 6295 ND, Holset,https://waarneming.nl/observation/350934239/
"POINT (5.7734 51.22667)",51.22667,5.77340,Hennenstraatje, 6005 PH, Weert,https://waarneming.nl/observation/351045141/
"POINT (5.97245 51.69203)",51.69203,5.97245,Heijenseweg, 6591 HB, Gennep,https://waarneming.nl/observation/351262949/
"POINT (6.03762 51.22714)",51.22714,6.03762,Gebroeders Schouenbergstraat, 6071 CP, Boukoul,https://waarneming.nl/observation/351221223/
"POINT (5.9599 51.33417)",51.33417,5.95990,Steenstraat, 5981 AG, Panningen,https://waarneming.nl/observation/351324980/
"POINT (5.77501 51.23048)",51.23048,5.77501,Eutropiastraat, 6005 PE, Weert,https://waarneming.nl/observation/351326834/
"POINT (5.94947 51.72562)",51.72562,5.94947,Schoolstraat, 6596 AP, Milsbeek,https://waarneming.nl/observation/351548146/
"POINT (5.68069 51.25489)",51.25489,5.68069,Oud Boshoven, 6002 NW, Weert,https://waarneming.nl/observation/351371528/
"POINT (6.16443 51.33444)",51.33444,6.16443,Ulingsheide, 5932 DA, Tegelen,https://waarneming.nl/observation/351795436/
"POINT (5.84748 51.05949)",51.05949,5.84748,Hemelrijk, 6114 RS, Susteren,https://waarneming.nl/observation/351849910/
"POINT (5.97212 51.52466)",51.52466,5.97212,Kempweg, 5801 VS, Venray,https://waarneming.nl/observation/351663381/
"POINT (5.80478 51.03081)",51.03081,5.80478,Monseigneur Buckxstraat, 6121 KV, Born,https://waarneming.nl/observation/351823367/
"POINT (5.67791 50.84785)",50.84785,5.67791,Brandenburgerweg, 6214 AJ, Maastricht,https://waarneming.nl/observation/351898246/
"POINT (5.71587 50.85028)",50.85028,5.71587,Keizer Arnulfstraat, 6224 HH, Maastricht,https://waarneming.nl/observation/352406332/
"POINT (5.99306 50.89563)",50.89563,5.99306,Oldenzaalstraat, 6415 CM, Heerlen,https://waarneming.nl/observation/352020692/
"POINT (6.04829 51.29065)",51.29065,6.04829,Beeselseweg, 5995 AP, Kessel,https://waarneming.nl/observation/352298497/
"POINT (5.7974 50.87141)",50.87141,5.79740,Geuldalhof, 6301 KB, Houthem,https://waarneming.nl/observation/352464659/
"POINT (5.67622 50.85472)",50.85472,5.67622,Halvemaanstraat, 6217 NE, Maastricht,https://waarneming.nl/observation/352638219/
"POINT (5.88006 50.9078)",50.90780,5.88006,Koningsgraven, 6363 BD, Wijnandsrade,https://waarneming.nl/observation/352738006/
"POINT (5.83963 50.97971)",50.97971,5.83963,Laan van Westfalen, 6162 KJ, Geleen,https://waarneming.nl/observation/353983317/
"POINT (6.19819 51.47387)",51.47387,6.19819,Lingsforterweg, 5944 BB, Arcen,https://waarneming.nl/observation/353820632/
"POINT (5.98209 51.18077)",51.18077,5.98209,Walbreukergraaf, 6041 NX, Roermond,https://waarneming.nl/observation/353964128/
"POINT (5.77426 50.8758)",50.87580,5.77426,A79, 6231 RT, Houthem,https://waarneming.nl/observation/354317366/
"POINT (5.74173 51.28943)",51.28943,5.74173,Speelhuijs, 6031 HR, Budschop,https://waarneming.nl/observation/354607103/
"POINT (5.95107 50.85459)",50.85459,5.95107,Hunsstraat, 6367 JJ, Ubachsberg,https://waarneming.nl/observation/354574870/
"POINT (5.8814 51.75633)",51.75633,5.88140,Bovensteweg, 6585 KD, Mook,https://waarneming.nl/observation/354650211/
"POINT (5.91967 50.94085)",50.94085,5.91967,Vonkstraat, 6436 BK, Amstenrade,https://waarneming.nl/observation/354823011/
"POINT (6.04308 50.90142)",50.90142,6.04308,1940-45-laan, 6373 VS, Landgraaf,https://waarneming.nl/observation/354879801/
"POINT (5.68975 50.84423)",50.84423,5.68975,Nieuwenhofstraat, 6211 KG, Maastricht,https://waarneming.nl/observation/354968140/
"POINT (5.8375 50.97805)",50.97805,5.83750,Ridder Vosstraat, 6162 AX, Geleen,https://waarneming.nl/observation/355348518/
"POINT (6.05759 51.60208)",51.60208,6.05759,Wezelstraat, 5854 JA, Nieuw Bergen,https://waarneming.nl/observation/355366702/
"POINT (5.68332 51.24577)",51.24577,5.68332,Nobellaan, 6006 NP, Weert,https://waarneming.nl/observation/355540056/
"POINT (5.98494 51.32294)",51.32294,5.98494,Schoutenring, 5981 DW, Panningen,https://waarneming.nl/observation/355604952/
"POINT (5.86417 50.99484)",50.99484,5.86417,Kastanjelaan, 6131 KA, Sittard,https://waarneming.nl/observation/358506361/
"POINT (5.87261 51.76322)",51.76322,5.87261,Middelweg, 6584 AH, Molenhoek,https://waarneming.nl/observation/355695577/
"POINT (5.94956 51.2373)",51.23730,5.94956,Eikendreef, 6081 EA, Haelen,https://waarneming.nl/observation/355742545/
"POINT (5.85592 50.97254)",50.97254,5.85592,Geleenstraat, 6151 EW, Munstergeleen,https://waarneming.nl/observation/355796865/
"POINT (5.77721 50.86303)",50.86303,5.77721,Kleinstraat, 6325 CW, Berg en Terblijt,https://waarneming.nl/observation/355881906/
"POINT (5.75459 51.28897)",51.28897,5.75459,Alexiastraat, 6031 DD, Budschop,https://waarneming.nl/observation/355890626/
"POINT (5.67343 50.8409)",50.84090,5.67343,d'Artagnanlaan, 6213 CH, Maastricht,https://waarneming.nl/observation/356127235/
"POINT (5.68136 50.84554)",50.84554,5.68136,Polvertorenstraat, 6211 LX, Maastricht,https://waarneming.nl/observation/359039442/
"POINT (5.64806 50.83884)",50.83884,5.64806,Lareshof, 6215 RE, Maastricht,https://waarneming.nl/observation/356227896/
"POINT (5.7098 51.26626)",51.26626,5.70980,Houtzaagmolen, 6003 CB, Weert,https://waarneming.nl/observation/356835869/
"POINT (5.7577 50.9254)",50.92540,5.75770,Cruisboomstraat, 6243 AM, Geulle aan de Maas,https://waarneming.nl/observation/356749973/
"POINT (5.69472 51.25659)",51.25659,5.69472,Odamolenstraat, 6002 BR, Weert,https://waarneming.nl/observation/356947054/
"POINT (6.14832 51.47678)",51.47678,6.14832,Horsterweg, 5872 CC, Broekhuizen,https://waarneming.nl/observation/357028548/
"POINT (6.06801 50.89122)",50.89122,6.06801,Mirbachstraat, 6471 CX, Eygelshoven,https://waarneming.nl/observation/356966118/
"POINT (6.08338 51.53698)",51.53698,6.08338,Merelhof, 5861 BA, Wanssum,https://waarneming.nl/observation/357272951/
"POINT (6.07056 50.87493)",50.87493,6.07056,Deken Deutzlaan, 6463 XD, Kerkrade,https://waarneming.nl/observation/357288540/
"POINT (5.83022 50.9675)",50.96750,5.83022,Op de Vey, 6165 CC, Geleen,https://waarneming.nl/observation/357387193/
"POINT (5.99617 51.53087)",51.53087,5.99617,Kroonkruid, 5803 JG, Venray,https://waarneming.nl/observation/357393698/
"POINT (5.73204 51.25653)",51.25653,5.73204,Middelstestraat, 6004 BJ, Weert,https://waarneming.nl/observation/357393400/
"POINT (6.03372 51.40685)",51.40685,6.03372,Mulderstraat, 5975 VX, Sevenum,https://waarneming.nl/observation/357399959/
"POINT (5.96058 51.24598)",51.24598,5.96058,Vreeholtstraat, 6083 BB, Nunhem,https://waarneming.nl/observation/357512959/
"POINT (5.96912 51.18076)",51.18076,5.96912,Roermondsestraat, 6049 AW, Merum,https://waarneming.nl/observation/357610351/
"POINT (6.04905 51.29051)",51.29051,6.04905,Meidoornplein, 5995 BS, Kessel,https://waarneming.nl/observation/357487935/
"POINT (5.68178 51.26621)",51.26621,5.68178,Madeliefhof, 6002 TN, Weert,https://waarneming.nl/observation/357537270/
"POINT (5.67411 50.84477)",50.84477,5.67411,Chrysantenstraat, 6214 SZ, Maastricht,https://waarneming.nl/observation/357589507/
"POINT (5.77771 50.88651)",50.88651,5.77771,Raar, 6231 RP, Meerssen,https://waarneming.nl/observation/357553734/
"POINT (5.79639 51.24071)",51.24071,5.79639,Mildert, 6031 SM, Nederweert,https://waarneming.nl/observation/357642481/
"POINT (5.93167 51.37884)",51.37884,5.93167,Spiesberg, 5985 NP, Grashoek,https://waarneming.nl/observation/357657788/
"POINT (5.73494 50.83955)",50.83955,5.73494,Schout Stasstraat, 6227 XC, Maastricht,https://waarneming.nl/observation/357718763/
"POINT (5.73838 51.30421)",51.30421,5.73838,Kleine steeg, 6031 NX, Nederweert,https://waarneming.nl/observation/357711181/
"POINT (5.95274 50.91462)",50.91462,5.95274,Oestererf, 6413 LM, Heerlen,https://waarneming.nl/observation/358061567/
"POINT (5.97957 51.52843)",51.52843,5.97957,Stationsweg, 5802 AB, Venray,https://waarneming.nl/observation/357855529/
"POINT (5.71819 50.85428)",50.85428,5.71819,Albertusstraat, 6226 XX, Maastricht,https://waarneming.nl/observation/358038909/
"POINT (5.72662 50.82773)",50.82773,5.72662,Cuyleborg, 6228 BD, Maastricht,https://waarneming.nl/observation/357926713/
"POINT (5.86742 50.97671)",50.97671,5.86742,Julianalaan, 6151 AP, Munstergeleen,https://waarneming.nl/observation/357927643/
"POINT (6.03793 51.12232)",51.12232,6.03793,Heerbaan, 6061 ED, Posterholt,https://waarneming.nl/observation/358034730/
"POINT (5.74898 50.83849)",50.83849,5.74898,Pater Kustersweg, 6267 NL, Cadier en Keer,https://waarneming.nl/observation/358092577/
"POINT (5.97193 51.07444)",51.07444,5.97193,Waldfeuchterbaan, 6105 BN, Maria Hoop,https://waarneming.nl/observation/358142802/
"POINT (5.77128 51.04502)",51.04502,5.77128,Dijk, 6127 AG, Grevenbicht,https://waarneming.nl/observation/358147241/
"POINT (5.99711 51.17961)",51.17961,5.99711,Processieweg, 6045 CH, Roermond,https://waarneming.nl/observation/358147891/
"POINT (6.05658 51.60884)",51.60884,6.05658,Bargapark, 5854 HD, Nieuw Bergen,https://waarneming.nl/observation/358335820/
"POINT (6.06535 50.87219)",50.87219,6.06535,Prinses Margrietstraat, 6463 BA, Kerkrade,https://waarneming.nl/observation/358189579/
"POINT (6.00695 50.81914)",50.81914,6.00695,Kerkstraat, 6351 GJ, Bocholtz,https://waarneming.nl/observation/360133411/
"POINT (5.97942 50.92919)",50.92919,5.97942,Hendrick Avercamp, 6445 CP, Brunssum,https://waarneming.nl/observation/358400580/
"POINT (5.82388 50.98332)",50.98332,5.82388,Orchideestraat, 6163 TX, Geleen,https://waarneming.nl/observation/358290238/
"POINT (6.02128 50.86335)",50.86335,6.02128,Oude Maar, 6467 GE, Kerkrade,https://waarneming.nl/observation/358431272/
"POINT (5.811 50.94859)",50.94859,5.81100,Langweide, 6191 ES, Neerbeek,https://waarneming.nl/observation/358378415/
"POINT (5.9921 51.35743)",51.35743,5.99210,Meester Caelersstraat, 5984 PJ, Koningslust,https://waarneming.nl/observation/358429675/
"POINT (6.05314 50.8924)",50.89240,6.05314,Laurastraat, 6471 JJ, Eygelshoven,https://waarneming.nl/observation/358471249/
"POINT (6.04399 51.29179)",51.29179,6.04399,Roode Eggeweg, 5995 PH, Kessel-Eik,https://waarneming.nl/observation/358590316/
"POINT (5.9719 51.17668)",51.17668,5.97190,Evenkamp, 6049 HN, Herten,https://waarneming.nl/observation/358519042/
"POINT (5.68006 51.26401)",51.26401,5.68006,Klaproosstraat, 6002 TV, Weert,https://waarneming.nl/observation/358589738/
"POINT (5.67431 50.84173)",50.84173,5.67431,d'Artagnanlaan, 6213 CH, Maastricht,https://waarneming.nl/observation/359029949/
"POINT (5.82451 50.90143)",50.90143,5.82451,Hoofdstraat, 6333 BJ, Schimmert,https://waarneming.nl/observation/358874624/
"POINT (5.93193 51.53509)",51.53509,5.93193,Den Tiel, 5815 EE, Merselo,https://waarneming.nl/observation/358933588/
"POINT (5.68437 51.21892)",51.21892,5.68437,Zoomweg, 6006 TW, Altweerterheide,https://waarneming.nl/observation/359076205/
"POINT (6.0572 51.15412)",51.15412,6.05720,Aan de Vier Gebroeders, 6075 AT, Herkenbosch,https://waarneming.nl/observation/359176615/
"POINT (5.99213 51.19764)",51.19764,5.99213,Wilhelminasingel, 6041 CH, Roermond,https://waarneming.nl/observation/359896809/
"POINT (6.13529 51.37321)",51.37321,6.13529,Clematisstraat, 5925 BG, Boekend,https://waarneming.nl/observation/359239482/
"POINT (5.94411 51.13016)",51.13016,5.94411,Stationsweg, 6065 EG, Montfort,https://waarneming.nl/observation/359259402/
"POINT (6.18792 51.4769)",51.47690,6.18792,Leermarkt, 5944 BM, Arcen,https://waarneming.nl/observation/361073178/
"POINT (6.1239 51.3311)",51.33110,6.12390,Kenzenstraat, 5935 BB, Steyl,https://waarneming.nl/observation/359494925/
"POINT (6.12561 51.32879)",51.32879,6.12561,Nabben, 5935 VM, Steyl,https://waarneming.nl/observation/359424960/
"POINT (5.92707 50.92056)",50.92056,5.92707,Slakkenstraat, 6431 NJ, Heerlen,https://waarneming.nl/observation/359457954/
"POINT (5.86541 51.23435)",51.23435,5.86541,Op de Stap, 6095 NN, Baexem,https://waarneming.nl/observation/359466845/
"POINT (5.81648 51.32225)",51.32225,5.81648,Anselberg, 6035 RV, Ospeldijk,https://waarneming.nl/observation/359592304/
"POINT (5.94478 51.72958)",51.72958,5.94478,Langstraat, 6596 BR, Milsbeek,https://waarneming.nl/observation/361667685/
"POINT (6.03921 51.35699)",51.35699,6.03921,Westeringlaan, 5993 CH, Maasbree,https://waarneming.nl/observation/359826578/
"POINT (5.78657 50.90849)",50.90849,5.78657,Langs de Gewannen, 6235 NV, Ulestraten,https://waarneming.nl/observation/359785686/
"POINT (6.0171 50.77365)",50.77365,6.01710,Beatrixstraat, 6291 GT, Vaals,https://waarneming.nl/observation/362749162/
"POINT (5.70924 50.82625)",50.82625,5.70924,Gronsvelderweg, 6229 VN, Maastricht,https://waarneming.nl/observation/360118563/
"POINT (5.96481 50.92127)",50.92127,5.96481,Nederlandlaan, 6414 HB, Heerlen,https://waarneming.nl/observation/359985210/
"POINT (5.87688 50.99589)",50.99589,5.87688,Swentiboldstraat, 6137 AE, Sittard,https://waarneming.nl/observation/359992546/
"POINT (6.19727 51.36182)",51.36182,6.19727,Karel van Egmondstraat, 5915 HV, Venlo,https://waarneming.nl/observation/359985064/
"POINT (5.88253 51.0663)",51.06630,5.88253,Hommelweg, 6114 RP, Susteren,https://waarneming.nl/observation/359988991/
"POINT (5.66039 50.84959)",50.84959,5.66039,Klokbekerstraat, 6216 TR, Maastricht,https://waarneming.nl/observation/360057229/
"POINT (5.79061 50.78407)",50.78407,5.79061,Duivenstraat, 6261 NV, Mheer,https://waarneming.nl/observation/360012491/
"POINT (5.81954 50.96577)",50.96577,5.81954,Maanstraat, 6161 TH, Geleen,https://waarneming.nl/observation/360189789/
"POINT (6.01294 50.76999)",50.76999,6.01294,Ceresstraat, 6291 VX, Vaals,https://waarneming.nl/observation/360284142/
"POINT (5.6964 50.79709)",50.79709,5.69640,Kasteellaan, 6245 SB, Oost-Maarland,https://waarneming.nl/observation/360078796/
"POINT (5.76447 50.88544)",50.88544,5.76447,Korte Raarberg, 6231 KP, Meerssen,https://waarneming.nl/observation/360203512/
"POINT (6.0087 50.86503)",50.86503,6.00870,Leon Biessenstraat, 6418 TL, Heerlen,https://waarneming.nl/observation/360199072/
"POINT (5.98768 50.83758)",50.83758,5.98768,Rolduckerweg, 6369 GT, Simpelveld,https://waarneming.nl/observation/360213636/
"POINT (5.96778 51.17666)",51.17666,5.96778,Oolderweg, 6049 AV, Merum,https://waarneming.nl/observation/360325465/
"POINT (5.81448 50.95384)",50.95384,5.81448,Spaansesingel, 6191 GK, Neerbeek,https://waarneming.nl/observation/360384632/
"POINT (5.89018 51.34696)",51.34696,5.89018,Stoek, 5768 GM, Meijel,https://waarneming.nl/observation/360410326/
"POINT (5.71433 50.77851)",50.77851,5.71433,Loenen, 6245 PL, Mariadorp,https://waarneming.nl/observation/360417387/
"POINT (5.81098 51.02949)",51.02949,5.81098,Arnold van Steinstraat, 6121 XN, Born,https://waarneming.nl/observation/360485481/
"POINT (5.78641 50.9067)",50.90670,5.78641,Pastoor van Eijsstraat, 6235 EL, Ulestraten,https://waarneming.nl/observation/360608952/
"POINT (5.85615 51.04037)",51.04037,5.85615,Reinald van Gelrestraat, 6118 BR, Nieuwstadt,https://waarneming.nl/observation/360694871/
"POINT (6.14284 51.41555)",51.41555,6.14284,Reuveltweg, 5971 CV, Grubbenvorst,https://waarneming.nl/observation/360840516/
"POINT (5.9571 51.24017)",51.24017,5.95710,Valkenstraat, 6081 EV, Haelen,https://waarneming.nl/observation/360929260/
"POINT (5.91071 51.1937)",51.19370,5.91071,Molenstraat, 6099 AK, Beegden,https://waarneming.nl/observation/361040269/
"POINT (5.85612 51.10215)",51.10215,5.85612,Verneese Steegje, 6101 JZ, Echt,https://waarneming.nl/observation/360979926/
"POINT (5.85171 51.01066)",51.01066,5.85171,Smithlaan, 6135 JJ, Sittard,https://waarneming.nl/observation/361011277/
"POINT (5.68285 51.23876)",51.23876,5.68285,Diesterbaan, 6006 TB, Weert,https://waarneming.nl/observation/361015026/
"POINT (6.00564 51.20885)",51.20885,6.00564,Schouwberg, 6041 AG, Roermond,https://waarneming.nl/observation/362075973/
"POINT (6.1273 51.37256)",51.37256,6.12730,Seringenstraat, 5925 EN, Boekend,https://waarneming.nl/observation/361086768/
"POINT (5.69933 51.2534)",51.25340,5.69933,Jean Verheggenstraat, 6001 SX, Weert,https://waarneming.nl/observation/361137156/
"POINT (5.85774 50.99802)",50.99802,5.85774,Stadswegske, 6131 AG, Sittard,https://waarneming.nl/observation/361274769/
"POINT (5.87695 51.10777)",51.10777,5.87695,Lariksstraat, 6101 KE, Pey,https://waarneming.nl/observation/361265585/
"POINT (5.89535 50.99127)",50.99127,5.89535,Lahrweg, 6132 SB, Sittard,https://waarneming.nl/observation/361367248/
"POINT (5.8816 50.83416)",50.83416,5.88160,Konijnendellerveldweg, 6321 PD, Wijlre,https://waarneming.nl/observation/361414556/
"POINT (5.83889 50.81617)",50.81617,5.83889,Rijksweg, 6269 NG, Margraten,https://waarneming.nl/observation/361469516/
"POINT (5.92521 50.91553)",50.91553,5.92521,Ridder Hoenstraat, 6433 ED, Heerlen,https://waarneming.nl/observation/361524568/
"POINT (5.87219 50.97918)",50.97918,5.87219,Leerlooierstraat, 6151 DC, Munstergeleen,https://waarneming.nl/observation/361617281/
"POINT (5.87413 51.00489)",51.00489,5.87413,Guillaume Franquinetstraat, 6136 HR, Sittard,https://waarneming.nl/observation/361754705/
"POINT (5.90711 51.14718)",51.14718,5.90711,Rector Hendrixstraat, 6051 JG, Brachterbeek,https://waarneming.nl/observation/361570090/
"POINT (6.13154 51.33593)",51.33593,6.13154,Romeinenstraat, 5935 SG, Steyl,https://waarneming.nl/observation/361592119/
"POINT (6.02746 50.85463)",50.85463,6.02746,Wauwelpad, 6466 GA, Kerkrade,https://waarneming.nl/observation/361622902/
"POINT (5.87971 51.00723)",51.00723,5.87971,Erasmusstraat, 6136 TJ, Sittard,https://waarneming.nl/observation/361647939/
"POINT (6.0355 51.22577)",51.22577,6.03550,Meestersweg, 6071 BN, Boukoul,https://waarneming.nl/observation/361796808/
"POINT (5.76911 50.96416)",50.96416,5.76911,Diepenbeekstraat, 6171 NZ, Stein,https://waarneming.nl/observation/361845982/
"POINT (5.82331 51.04863)",51.04863,5.82331,Kloosterstraat, 6123 AM, Holtum,https://waarneming.nl/observation/361697220/
"POINT (5.80779 51.03608)",51.03608,5.80779,Aldenhofweg, 6121 MA, Born,https://waarneming.nl/observation/361709174/
"POINT (6.0705 51.15971)",51.15971,6.07050,Henri Jonaslaan, 6075 CH, Herkenbosch,https://waarneming.nl/observation/361778818/
"POINT (5.96418 50.92271)",50.92271,5.96418,Verdragstraat, 6414 EV, Heerlen,https://waarneming.nl/observation/361808669/
"POINT (5.92889 51.14256)",51.14256,5.92889,Rozendaal, 6051 KD, Maasbracht,https://waarneming.nl/observation/361809115/
"POINT (5.66709 50.8438)",50.84380,5.66709,Bataviaplantsoen, 6214 XJ, Maastricht,https://waarneming.nl/observation/361819619/
"POINT (5.76948 50.96413)",50.96413,5.76948,Diepenbeekstraat, 6171 NZ, Stein,https://waarneming.nl/observation/361845905/
"POINT (5.72508 51.19298)",51.19298,5.72508,Frans Strouxstraat, 6039 GJ, Stramproy,https://waarneming.nl/observation/362188110/
"POINT (5.72403 51.19811)",51.19811,5.72403,Vloedmolenweg, 6039 RX, Stramproy,https://waarneming.nl/observation/362188421/
"POINT (5.88484 50.87603)",50.87603,5.88484,Remigiusstraat, 6343 BP, Termaar,https://waarneming.nl/observation/362066255/
"POINT (5.7689 50.95965)",50.95965,5.76890,Heibergweg, 6171 XC, Stein,https://waarneming.nl/observation/361998392/
"POINT (6.01448 51.20515)",51.20515,6.01448,Schepen van der Holtstraat, 6042 TX, Roermond,https://waarneming.nl/observation/361957617/
"POINT (5.82401 51.05341)",51.05341,5.82401,Grote Dries, 6123 BX, Holtum,https://waarneming.nl/observation/361963478/
"POINT (5.82552 50.98192)",50.98192,5.82552,Lindersstraat, 6163 VZ, Geleen,https://waarneming.nl/observation/361988873/
"POINT (5.97228 51.1771)",51.17710,5.97228,Marga Klompéstraat, 6049 HR, Merum,https://waarneming.nl/observation/362033920/
"POINT (5.88517 51.24964)",51.24964,5.88517,Hooghveld, 6093 DB, Heythuysen,https://waarneming.nl/observation/362053786/
"POINT (5.66377 50.83813)",50.83813,5.66377,Latourlaan, 6213 GG, Maastricht,https://waarneming.nl/observation/362187126/
"POINT (5.69361 50.83614)",50.83614,5.69361,Papenweg, 6212 CE, Maastricht,https://waarneming.nl/observation/362285178/
"POINT (5.85869 50.98371)",50.98371,5.85869,Morgensterstraat, 6133 VK, Sittard,https://waarneming.nl/observation/362202844/
"POINT (5.96462 51.44557)",51.44557,5.96462,Peelheideweg, 5966 PJ, America,https://waarneming.nl/observation/362850722/
"POINT (5.77436 50.96807)",50.96807,5.77436,Dieterenstraat, 6171 JK, Stein,https://waarneming.nl/observation/362215260/
"POINT (6.07946 51.36578)",51.36578,6.07946,Rooth, 5993 PE, Maasbree,https://waarneming.nl/observation/362245054/
"POINT (6.02572 50.86587)",50.86587,6.02572,Pastoor Spiertsstraat, 6467 CP, Kerkrade,https://waarneming.nl/observation/362339908/
"POINT (6.03981 51.35576)",51.35576,6.03981,Oude Pastoriestraat, 5993 XW, Maasbree,https://waarneming.nl/observation/362315868/
"POINT (5.91541 50.76026)",50.76026,5.91541,Kuttingerweg, 6285 NL, Epen,https://waarneming.nl/observation/362382701/
"POINT (5.85631 51.03867)",51.03867,5.85631,Delweide, 6118 AG, Nieuwstadt,https://waarneming.nl/observation/362417515/
"POINT (5.97446 50.96819)",50.96819,5.97446,Op de Keuken, 6451 JL, Schinveld,https://waarneming.nl/observation/362588094/
"POINT (5.86395 50.98199)",50.98199,5.86395,Middenweg, 6133 BT, Sittard,https://waarneming.nl/observation/362658634/
"POINT (5.87116 50.98156)",50.98156,5.87116,Breijhaag, 6132 CL, Sittard,https://waarneming.nl/observation/362663980/
"POINT (6.02485 51.455)",51.45500,6.02485,Sint Jansstraat, 5964 AC, Meterik,https://waarneming.nl/observation/362689538/
"POINT (5.8729 50.992)",50.99200,5.87290,Reubsaetlaan, 6132 AJ, Sittard,https://waarneming.nl/observation/362884057/
"POINT (5.83135 51.04891)",51.04891,5.83135,Holtummerweg, 6114 RE, Susteren,https://waarneming.nl/observation/362797007/
"POINT (6.02374 51.45483)",51.45483,6.02374,Crommentuijnstraat, 5964 NM, Meterik,https://waarneming.nl/observation/362838813/
"POINT (5.80229 50.94269)",50.94269,5.80229,Carmelstraat, 6191 VR, Neerbeek,https://waarneming.nl/observation/362895674/
"POINT (6.00626 50.87292)",50.87292,6.00626,Tarwehof, 6418 KM, Heerlen,https://waarneming.nl/observation/362906101/
"POINT (6.14455 51.41957)",51.41957,6.14455,Pastoor Zegersstraat, 5971 VR, Grubbenvorst,https://waarneming.nl/observation/362910988/
"POINT (5.95818 51.17955)",51.17955,5.95818,Wevelaakweg, 6049 LP, Merum,https://waarneming.nl/observation/362922029/
"POINT (5.96303 51.1786)",51.17860,5.96303,Vestesingel, 6049 LC, Merum,https://waarneming.nl/observation/362932110/
"POINT (5.77875 50.95058)",50.95058,5.77875,Constantijn Huygensstraat, 6181 BH, Catsop,https://waarneming.nl/observation/363131860/
"POINT (5.71554 51.26508)",51.26508,5.71554,Stellingmolen, 6003 CH, Weert,https://waarneming.nl/observation/362950231/
"POINT (6.00551 51.20162)",51.20162,6.00551,Bredeweg, 6042 GC, Roermond,https://waarneming.nl/observation/363038736/
"POINT (5.7983 51.23794)",51.23794,5.79830,Kanaalweg, 6031 SM, Kelpen-Oler,https://waarneming.nl/observation/363078594/
"POINT (5.79898 51.23857)",51.23857,5.79898,Mildert, 6031 SM, Nederweert,https://waarneming.nl/observation/363155089/
"POINT (5.97102 51.0892)",51.08920,5.97102,Kerkweg, 6105 CC, Maria Hoop,https://waarneming.nl/observation/363315579/
"POINT (5.90525 51.25095)",51.25095,5.90525,Walk, 6093 GS, Heythuysen,https://waarneming.nl/observation/363231183/
"POINT (5.80322 51.26668)",51.26668,5.80322,Banendijk, 6034 SV, Nederweert-Eind,https://waarneming.nl/observation/363227150/
"POINT (5.72981 50.80868)",50.80868,5.72981,Broekstraat, 6247 BP, Rijckholt,https://waarneming.nl/observation/363208648/
"POINT (5.79286 50.87361)",50.87361,5.79286,Meerssenderweg, 6301 KG, Houthem,https://waarneming.nl/observation/363265176/
"POINT (5.83147 50.81783)",50.81783,5.83147,Sprinkstraat, 6269 AN, Margraten,https://waarneming.nl/observation/363315624/
"POINT (6.03551 51.14844)",51.14844,6.03551,Oheweg, 6077 NR, Melick,https://waarneming.nl/observation/363399103/
"POINT (5.8894 51.00802)",51.00802,5.88940,Tudderenderweg, 6137 LA, Sittard,https://waarneming.nl/observation/363444435/
"POINT (5.89236 51.01143)",51.01143,5.89236,Tudderenderweg, 6137 LA, Sittard,https://waarneming.nl/observation/363445550/
"POINT (5.74919 50.90429)",50.90429,5.74919,Kapelvoetpad, 6241 NM, Bunde,https://waarneming.nl/observation/363433462/
"POINT (5.93253 50.94264)",50.94264,5.93253,Hagendorenweg, 6446 PT, Amstenrade,https://waarneming.nl/observation/363452617/
"POINT (5.80316 50.94279)",50.94279,5.80316,Bourgognestraat, 6191 HZ, Neerbeek,https://waarneming.nl/observation/363566070/
"POINT (6.18767 51.47896)",51.47896,6.18767,Brandemolen, 5944 ND, Arcen,https://waarneming.nl/observation/363619856/
"POINT (5.72964 50.76358)",50.76358,5.72964,Grijzegraaf, 6245 KG, Mesch,https://waarneming.nl/observation/363745581/
"POINT (5.72578 50.81721)",50.81721,5.72578,Slakweg, 6228 NB, Maastricht,https://waarneming.nl/observation/363747977/
"POINT (5.99686 51.31688)",51.31688,5.99686,St. Annastraat, 5988 BT, Helden,https://waarneming.nl/observation/363775423/
"POINT (6.07518 50.87976)",50.87976,6.07518,Paulus Potterstraat, 6464 CA, Kerkrade,https://waarneming.nl/observation/363808351/
"POINT (5.85912 50.98349)",50.98349,5.85912,Morgensterstraat, 6133 VK, Sittard,https://waarneming.nl/observation/363814844/
"POINT (6.07686 51.28261)",51.28261,6.07686,In den Hof, 5953 BX, Reuver,https://waarneming.nl/observation/363839630/
"POINT (5.84781 51.24946)",51.24946,5.84781,Kerkstraat, 6092 NE, Leveroy,https://waarneming.nl/observation/363848741/
"POINT (5.96761 51.09216)",51.09216,5.96761,Annendaalderweg, 6105 AR, Maria Hoop,https://waarneming.nl/observation/363900908/
"POINT (5.88359 51.34228)",51.34228,5.88359,Churchilllaan, 5768 AC, Meijel,https://waarneming.nl/observation/364016321/
"POINT (6.02816 51.12566)",51.12566,6.02816,Hoofdstraat, 6061 CA, Posterholt,https://waarneming.nl/observation/364068216/
"POINT (5.94651 51.05011)",51.05011,5.94651,Haverterstraat, 6104 AP, Koningsbosch,https://waarneming.nl/observation/364140138/
"POINT (5.85797 51.00479)",51.00479,5.85797,Lupinestraat, 6135 GS, Sittard,https://waarneming.nl/observation/364173024/
"POINT (6.12696 51.36172)",51.36172,6.12696,Paalweg, 5926 PX, Hout-Blerick,https://waarneming.nl/observation/364253062/
"POINT (5.91112 50.76036)",50.76036,5.91112,Terzieterweg, 6285 NE, Epen,https://waarneming.nl/observation/364253964/
"POINT (6.09319 51.49645)",51.49645,6.09319,Kloosterstraat, 5865 AA, Tienray,https://waarneming.nl/observation/364275972/
"POINT (6.09045 51.54922)",51.54922,6.09045,Hoenderstraat, 5855 AH, Well,https://waarneming.nl/observation/364314423/
"POINT (5.9876 51.3212)",51.32120,5.98760,Willem van Hornestraat, 5988 KJ, Helden,https://waarneming.nl/observation/364308508/
"POINT (6.09863 51.14106)",51.14106,6.09863,Klifsbergweg, 6063 NE, Vlodrop,https://waarneming.nl/observation/364402410/
"POINT (5.99566 51.19924)",51.19924,5.99566,Venloseweg, 6041 BS, Roermond,https://waarneming.nl/observation/366476282/
"POINT (5.93014 50.92146)",50.92146,5.93014,Nieuwstraat, 6431 KR, Heerlen,https://waarneming.nl/observation/365354708/
"POINT (6.02091 51.45415)",51.45415,6.02091,Theresiastraat, 5964 AK, Meterik,https://waarneming.nl/observation/364358731/
"POINT (5.72354 51.24073)",51.24073,5.72354,Moeselschansweg, 6005 NA, Weert,https://waarneming.nl/observation/364437552/
"POINT (5.78245 50.9496)",50.94960,5.78245,Business Park Stein, 6181 MA, Catsop,https://waarneming.nl/observation/364399916/
"POINT (6.00027 51.14126)",51.14126,6.00027,Johan Friso-laan, 6077 CC, Sint Odiliënberg,https://waarneming.nl/observation/364576823/
"POINT (5.84478 51.10797)",51.10797,5.84478,Contelmostraat, 6109 AG, Ohé en Laak,https://waarneming.nl/observation/364571573/
"POINT (5.84666 51.24665)",51.24665,5.84666,Heerbaan, 6092 NB, Leveroy,https://waarneming.nl/observation/364525898/
"POINT (5.81342 51.02097)",51.02097,5.81342,Rijstraat, 6143 AR, Guttecoven,https://waarneming.nl/observation/364650964/
"POINT (6.07035 50.87892)",50.87892,6.07035,Lichtenbergstraat, 6464 AS, Kerkrade,https://waarneming.nl/observation/364645837/
"POINT (5.84549 51.17761)",51.17761,5.84549,Santfort, 6017 RJ, Thorn,https://waarneming.nl/observation/364693218/
"POINT (6.08609 51.42122)",51.42122,6.08609,Sevenumseweg, 5971 NL, Grubbenvorst,https://waarneming.nl/observation/364727978/
"POINT (5.73357 50.83559)",50.83559,5.73357,Veldstraat, 6227 SX, Maastricht,https://waarneming.nl/observation/364731479/
"POINT (6.04935 51.46088)",51.46088,6.04935,Gebroeders van Doornelaan, 5961 BD, Horst,https://waarneming.nl/observation/364834146/
"POINT (5.94909 50.88989)",50.88989,5.94909,Terworm, 6411 RV, Heerlen,https://waarneming.nl/observation/364883200/
"POINT (6.05548 51.65569)",51.65569,6.05548,Beltweg, 5853 EM, Siebengewald,https://waarneming.nl/observation/364968971/
"POINT (5.94091 50.87545)",50.87545,5.94091,Getske, 6367 AC, Kunrade,https://waarneming.nl/observation/365513519/
"POINT (6.16471 51.46511)",51.46511,6.16471,Broekhuizerweg, 5973 NX, Lottum,https://waarneming.nl/observation/364891340/
"POINT (6.15265 51.36785)",51.36785,6.15265,1e Graaf van Loonstraat, 5921 JA, Blerick,https://waarneming.nl/observation/364882762/
"POINT (5.82842 50.81803)",50.81803,5.82842,Sprinkstraat, 6269 AT, Margraten,https://waarneming.nl/observation/365137245/
"POINT (5.97514 51.17918)",51.17918,5.97514,Tintelberg, 6041 PS, Roermond,https://waarneming.nl/observation/365076095/
"POINT (5.67161 51.26548)",51.26548,5.67161,Groothulsterweg, 6002 NA, Weert,https://waarneming.nl/observation/365218085/
"POINT (5.7051 51.27399)",51.27399,5.70510,Aldenheerd, 6003 NW, Weert,https://waarneming.nl/observation/365154751/
"POINT (5.99902 51.14381)",51.14381,5.99902,Morgenweg, 6077 GW, Sint Odiliënberg,https://waarneming.nl/observation/365431945/
"POINT (5.68518 51.25484)",51.25484,5.68518,Odahoevestraat, 6002 CT, Weert,https://waarneming.nl/observation/365373486/
"POINT (6.00779 51.19544)",51.19544,6.00779,Iepenlaan, 6042 HE, Roermond,https://waarneming.nl/observation/365512167/
"POINT (5.79829 50.78572)",50.78572,5.79829,De Gelimment, 6261 PJ, Mheer,https://waarneming.nl/observation/365539694/
"POINT (5.95818 50.95151)",50.95151,5.95818,Europalaan, 6441 JJ, Brunssum,https://waarneming.nl/observation/365564311/
"POINT (5.72274 50.84175)",50.84175,5.72274,Demertstraat, 6227 AN, Maastricht,https://waarneming.nl/observation/365636559/
"POINT (5.96078 51.17781)",51.17781,5.96078,Vestesingel, 6049 LC, Merum,https://waarneming.nl/observation/365530366/
"POINT (5.93933 50.92517)",50.92517,5.93933,Verlengde Wilhelminastraat, 6431 XP, Heerlen,https://waarneming.nl/observation/365538293/
"POINT (5.99479 51.32206)",51.32206,5.99479,Caeciliastraat, 5988 AL, Helden,https://waarneming.nl/observation/365679167/
"POINT (6.12801 51.33578)",51.33578,6.12801,Maasstraat, 5935 AL, Steyl,https://waarneming.nl/observation/365838189/
"POINT (5.97904 50.95056)",50.95056,5.97904,Sint Gregoriuslaan, 6442 AG, Brunssum,https://waarneming.nl/observation/365773431/
"POINT (6.00203 50.81882)",50.81882,6.00203,Rosaliestraat, 6351 LG, Bocholtz,https://waarneming.nl/observation/365883095/
"POINT (5.88627 51.009)",51.00900,5.88627,Sportcentrumlaan, 6136 VG, Sittard,https://waarneming.nl/observation/365939502/
"POINT (5.95142 50.9366)",50.93660,5.95142,Schildstraat, 6444 XM, Brunssum,https://waarneming.nl/observation/366007929/
"POINT (5.85857 50.98291)",50.98291,5.85857,Avondsterstraat, 6133 VL, Sittard,https://waarneming.nl/observation/366096968/
"POINT (5.81519 50.94636)",50.94636,5.81519,Keulsteeg, 6191 HR, Neerbeek,https://waarneming.nl/observation/366134991/
"POINT (5.88728 50.99431)",50.99431,5.88728,Merovingenstraat, 6132 EA, Sittard,https://waarneming.nl/observation/366113548/
"POINT (5.87393 50.98332)",50.98332,5.87393,Tomelweg, 6132 BS, Sittard,https://waarneming.nl/observation/366121268/
"POINT (5.83412 51.03777)",51.03777,5.83412,Rollenweg, 6121 SB, Born,https://waarneming.nl/observation/366144951/
"POINT (5.86652 51.12438)",51.12438,5.86652,Swaantjesweg, 6101 XN, Echt,https://waarneming.nl/observation/366192257/
"POINT (6.2051 51.39539)",51.39539,6.20510,Weselseweg, 5916 RG, Venlo,https://waarneming.nl/observation/366258646/
"POINT (5.89206 50.86325)",50.86325,5.89206,Sint Gillisstraat, 6312 AE, Ransdaal,https://waarneming.nl/observation/366296065/
"POINT (5.69354 50.83082)",50.83082,5.69354,Ursulinenweg, 6212 NC, Maastricht,https://waarneming.nl/observation/366332698/
"POINT (5.78601 51.04003)",51.04003,5.78601,Tomberstraat, 6124 AK, Papenhoven,https://waarneming.nl/observation/366370690/
"POINT (5.78613 51.03776)",51.03776,5.78613,Kommelweg, 6124 AK, Papenhoven,https://waarneming.nl/observation/366735076/
"POINT (5.95416 50.93962)",50.93962,5.95416,Servatiusstraat, 6444 VK, Brunssum,https://waarneming.nl/observation/366656763/
"POINT (5.99533 51.19889)",51.19889,5.99533,Venloseweg, 6041 BS, Roermond,https://waarneming.nl/observation/366509975/
"POINT (5.75444 50.96641)",50.96641,5.75444,Molendijk, 6171 GX, Stein,https://waarneming.nl/observation/366478938/
"POINT (5.86061 51.08819)",51.08819,5.86061,Doorderweg, 6114 LB, Echt,https://waarneming.nl/observation/366476817/
"POINT (6.13519 51.32199)",51.32199,6.13519,Leijgraafweg, 5951 HC, Belfeld,https://waarneming.nl/observation/366891969/
"POINT (5.81323 50.98873)",50.98873,5.81323,Gladiolensingel, 6163 AR, Geleen,https://waarneming.nl/observation/368192401/
"POINT (5.7282 50.83967)",50.83967,5.72820,Pastoor Heijnenstraat, 6227 TE, Maastricht,https://waarneming.nl/observation/366656510/
"POINT (5.78559 51.03992)",51.03992,5.78559,Tomberstraat, 6124 AK, Papenhoven,https://waarneming.nl/observation/366735581/
"POINT (6.07283 50.8483)",50.84830,6.07283,Pensionaatstraat, 6462 GX, Kerkrade,https://waarneming.nl/observation/366740642/
"POINT (5.75519 50.96691)",50.96691,5.75519,Molendijk, 6171 GX, Stein,https://waarneming.nl/observation/366776402/
"POINT (5.94129 50.93813)",50.93813,5.94129,Fazantlaan, 6446 DA, Brunssum,https://waarneming.nl/observation/366817427/
"POINT (5.82467 50.96289)",50.96289,5.82467,Daalstraat, 6165 TH, Geleen,https://waarneming.nl/observation/366955984/
"POINT (5.82935 51.21895)",51.21895,5.82935,Processieweg, 6037 NW, Kelpen-Oler,https://waarneming.nl/observation/366900641/
"POINT (5.92891 50.93685)",50.93685,5.92891,Oudestraat, 6436 AC, Amstenrade,https://waarneming.nl/observation/366929246/
"POINT (5.98196 50.91201)",50.91201,5.98196,Koolkoelenweg, 6414 XP, Heerlen,https://waarneming.nl/observation/367012725/
"POINT (6.00803 51.19509)",51.19509,6.00803,Gebroeklaan, 6042 GP, Roermond,https://waarneming.nl/observation/367069259/
"POINT (5.84409 51.07509)",51.07509,5.84409,Vleutstraat, 6114 KN, Dieteren,https://waarneming.nl/observation/367073073/
"POINT (5.9268 51.14271)",51.14271,5.92680,A73, 6051 KM, Brachterbeek,https://waarneming.nl/observation/367089123/
"POINT (5.80777 51.03128)",51.03128,5.80777,Kerkstraat, 6121 LA, Born,https://waarneming.nl/observation/367241334/
"POINT (6.19131 51.38415)",51.38415,6.19131,Noordervaartlaan, 5916 SR, Blerick,https://waarneming.nl/observation/367113501/
"POINT (5.88363 51.08312)",51.08312,5.88363,Hoogstraat, 6102 XV, Slek,https://waarneming.nl/observation/367122037/
"POINT (5.70492 50.79907)",50.79907,5.70492,Oosterweg, 6245 LC, Oost-Maarland,https://waarneming.nl/observation/367217922/
"POINT (5.80764 51.03103)",51.03103,5.80764,Kerkstraat, 6121 LA, Born,https://waarneming.nl/observation/368100410/
"POINT (5.86576 51.12374)",51.12374,5.86576,Swaantjesweg, 6101 XN, Echt,https://waarneming.nl/observation/367274633/
"POINT (5.86715 51.12266)",51.12266,5.86715,Swaantjesweg, 6101 XN, Echt,https://waarneming.nl/observation/367275981/
"POINT (5.86987 50.93557)",50.93557,5.86987,Nagelbeek, 6365 EL, Schinnen,https://waarneming.nl/observation/367237057/
"POINT (5.89187 50.86372)",50.86372,5.89187,Ransdalerstraat, 6311 AW, Ransdaal,https://waarneming.nl/observation/367390421/
"POINT (5.99856 51.19304)",51.19304,5.99856,Monseigneur Savelbergstraat, 6042 AS, Roermond,https://waarneming.nl/observation/367296388/
"POINT (5.95056 51.05138)",51.05138,5.95056,Haverterstraat, 6104 AN, Koningsbosch,https://waarneming.nl/observation/367533304/
"POINT (5.97473 51.3195)",51.31950,5.97473,Raadhuisstraat, 5987 AX, Egchel,https://waarneming.nl/observation/367563666/
"POINT (6.0595 50.88235)",50.88235,6.05950,Roderlandbaan, 6468 AL, Kerkrade,https://waarneming.nl/observation/367605058/
"POINT (6.01762 50.88998)",50.88998,6.01762,Putstraat, 6372 BK, Landgraaf,https://waarneming.nl/observation/367981897/
"POINT (6.04016 51.27092)",51.27092,6.04016,Meuleberg, 5954 AS, Beesel,https://waarneming.nl/observation/367611981/
"POINT (5.94195 50.9525)",50.95250,5.94195,Wilmenweg, 6447 AX, Merkelbeek,https://waarneming.nl/observation/367699339/
"POINT (6.05988 50.88219)",50.88219,6.05988,Dirk Zweepstraat, 6464 GE, Kerkrade,https://waarneming.nl/observation/368652066/
"POINT (5.8943 51.28507)",51.28507,5.89430,Asbroek, 6089 NA, Heibloem,https://waarneming.nl/observation/367755420/
"POINT (6.09183 51.16191)",51.16191,6.09183,Meinweg, 6075 NA, Herkenbosch,https://waarneming.nl/observation/367902925/
"POINT (6.13462 51.34008)",51.34008,6.13462,Spoorstraat, 5931 PT, Tegelen,https://waarneming.nl/observation/367761891/
"POINT (5.81438 51.04894)",51.04894,5.81438,Spaans Vonderen, 6122 EH, Buchten,https://waarneming.nl/observation/367818156/
"POINT (6.03542 51.41)",51.41000,6.03542,Den Eigen, 5975 CA, Sevenum,https://waarneming.nl/observation/368068916/
"POINT (6.16981 51.37853)",51.37853,6.16981,Hogeschoorweg, 5914 CD, Blerick,https://waarneming.nl/observation/367911339/
"POINT (5.92819 50.94059)",50.94059,5.92819,Kemkensweg, 6436 CN, Amstenrade,https://waarneming.nl/observation/367917137/
"POINT (5.97435 51.31962)",51.31962,5.97435,Raadhuisstraat, 5987 AX, Egchel,https://waarneming.nl/observation/368031585/
"POINT (5.99802 51.36072)",51.36072,5.99802,De Koningstraat, 5984 NH, Koningslust,https://waarneming.nl/observation/368098401/
"POINT (5.74824 50.83841)",50.83841,5.74824,Pater Kustersweg, 6267 NL, Cadier en Keer,https://waarneming.nl/observation/368147105/
"POINT (5.79583 51.24076)",51.24076,5.79583,Mildert, 6031 SM, Nederweert,https://waarneming.nl/observation/368046083/
"POINT (5.65865 50.83201)",50.83201,5.65865,Redemptielaan, 6213 JD, Maastricht,https://waarneming.nl/observation/368062128/
"POINT (5.87181 50.93584)",50.93584,5.87181,Nagelbeek, 6365 EH, Schinnen,https://waarneming.nl/observation/368156318/
"POINT (5.68328 51.25262)",51.25262,5.68328,Princenweg, 6002 AE, Weert,https://waarneming.nl/observation/368263046/
"POINT (6.05732 51.45358)",51.45358,6.05732,Stoktstraat, 5961 TN, Horst,https://waarneming.nl/observation/368139364/
"POINT (5.79965 50.99212)",50.99212,5.79965,Urmonderbaan, 6167 RD, Geleen,https://waarneming.nl/observation/368233936/
"POINT (5.65868 50.85027)",50.85027,5.65868,Veldspaatstraat, 6216 BM, Maastricht,https://waarneming.nl/observation/368179874/
"POINT (5.97281 50.93703)",50.93703,5.97281,Zuid-Hollandlaan, 6443 AG, Brunssum,https://waarneming.nl/observation/368331486/
"POINT (5.83786 50.99906)",50.99906,5.83786,Fischerpad, 6142 BT, Einighausen,https://waarneming.nl/observation/368205987/
"POINT (5.90033 51.1173)",51.11730,5.90033,Caulitenstraat, 6112 AL, Sint Joost,https://waarneming.nl/observation/368231730/
"POINT (5.85841 51.06161)",51.06161,5.85841,,6114 NC, Susteren,https://waarneming.nl/observation/368301803/
"POINT (5.78715 51.04654)",51.04654,5.78715,Lookerweg, 6124 BM, Papenhoven,https://waarneming.nl/observation/368321793/
"POINT (5.72822 50.86094)",50.86094,5.72822,Lovendaalhoeve, 6225 AG, Maastricht,https://waarneming.nl/observation/368328053/
"POINT (5.81068 50.96294)",50.96294,5.81068,Vouershof, 6161 DB, Geleen,https://waarneming.nl/observation/368328511/
"POINT (6.0513 51.27163)",51.27163,6.05130,Hoogstraat, 5954 AD, Beesel,https://waarneming.nl/observation/368335675/
"POINT (5.92174 51.26142)",51.26142,5.92174,Groenstraat, 6088 CW, Roggel,https://waarneming.nl/observation/368345667/
"POINT (6.05159 51.36499)",51.36499,6.05159,Dörperfeldlaan, 5993 DN, Maasbree,https://waarneming.nl/observation/368560743/
"POINT (5.97608 50.87662)",50.87662,5.97608,Marcus Aureliushof, 6417 TD, Heerlen,https://waarneming.nl/observation/368459104/
"POINT (5.90539 51.11184)",51.11184,5.90539,Heerdstraat, 6112 AA, Sint Joost,https://waarneming.nl/observation/369281570/
"POINT (5.72957 50.83981)",50.83981,5.72957,Sint Servatiusweg, 6227 TS, Maastricht,https://waarneming.nl/observation/368567698/
"POINT (5.96136 50.95364)",50.95364,5.96136,Klingstraat, 6441 KE, Brunssum,https://waarneming.nl/observation/368553099/
"POINT (5.86709 51.2529)",51.25290,5.86709,Bosscherkampweg, 6093 NH, Heythuysen,https://waarneming.nl/observation/368528939/
"POINT (5.74335 50.91963)",50.91963,5.74335,Andreas Sauerlaan, 6243 CC, Geulle aan de Maas,https://waarneming.nl/observation/368612523/
"POINT (5.83804 50.80006)",50.80006,5.83804,Reijmerstokkerdorpsstraat, 6274 NJ, Reijmerstok,https://waarneming.nl/observation/368581589/
"POINT (5.73905 50.96304)",50.96304,5.73905,Grote Straat, 6181 NW, Meers,https://waarneming.nl/observation/368645667/
"POINT (5.95107 50.91702)",50.91702,5.95107,Ganzeweide, 6413 GJ, Heerlen,https://waarneming.nl/observation/371792449/
"POINT (5.8816 50.91973)",50.91973,5.88160,Platsmolenweg, 6361 EM, Nuth,https://waarneming.nl/observation/369854634/
"POINT (5.71592 50.77046)",50.77046,5.71592,Ingenieur Rocourstraat, 6245 AC, Mariadorp,https://waarneming.nl/observation/368754857/
"POINT (5.75357 50.88749)",50.88749,5.75357,Pastoor Nicolaus de Reimsstraat, 6231 HK, Rothem,https://waarneming.nl/observation/368815942/
"POINT (5.90013 50.9907)",50.99070,5.90013,Stadsvoogdplein, 6132 TM, Sittard,https://waarneming.nl/observation/368756977/
"POINT (5.78202 51.04194)",51.04194,5.78202,Julianalaan, 6124 AG, Papenhoven,https://waarneming.nl/observation/368900691/
"POINT (5.83505 51.24879)",51.24879,5.83505,Dorpstraat, 6091 NL, Leveroy,https://waarneming.nl/observation/368940890/
"POINT (6.17591 51.3747)",51.37470,6.17591,Helbeek, 5911 CW, Blerick,https://waarneming.nl/observation/368992004/
"POINT (5.68208 50.82844)",50.82844,5.68208,Van Schaikweg, 6212 XM, Maastricht,https://waarneming.nl/observation/370598461/
"POINT (5.66461 50.84956)",50.84956,5.66461,Eenhoornsingel, 6216 CS, Maastricht,https://waarneming.nl/observation/369109973/
"POINT (6.18381 51.4761)",51.47610,6.18381,Op de Hor, 5944 AN, Arcen,https://waarneming.nl/observation/369371756/
"POINT (5.9494 51.17722)",51.17722,5.94940,Drususberg, 6049 MA, Merum,https://waarneming.nl/observation/369209079/
"POINT (5.82977 50.95025)",50.95025,5.82977,Stikkerstraat, 6164 CT, Geleen,https://waarneming.nl/observation/369321705/
"POINT (5.71075 50.85442)",50.85442,5.71075,Rijksweg A2, 6224 EH, Maastricht,https://waarneming.nl/observation/369217499/
"POINT (5.87579 51.01142)",51.01142,5.87579,Doctor Nolenslaan, 6136 CB, Sittard,https://waarneming.nl/observation/369216637/
"POINT (5.84225 51.16046)",51.16046,5.84225,Wijngaard, 6017 HA, Thorn,https://waarneming.nl/observation/369421638/
"POINT (5.86887 50.98918)",50.98918,5.86887,Leyenbroekerweg, 6132 CH, Sittard,https://waarneming.nl/observation/369320884/
"POINT (5.86908 50.98962)",50.98962,5.86908,Leyenbroekerweg, 6132 CH, Sittard,https://waarneming.nl/observation/369302275/
"POINT (5.72866 50.80723)",50.80723,5.72866,Meester Claessensstraat, 6247 CB, Rijckholt,https://waarneming.nl/observation/369258782/
"POINT (5.95745 51.32314)",51.32314,5.95745,Eemsestraat, 5981 PP, Panningen,https://waarneming.nl/observation/369268205/
"POINT (5.99466 51.31716)",51.31716,5.99466,van der Boyenstraat, 5988 BE, Helden,https://waarneming.nl/observation/369441358/
"POINT (5.86445 50.9966)",50.99660,5.86445,Parklaan, 6131 KG, Sittard,https://waarneming.nl/observation/369332144/
"POINT (6.01374 50.87147)",50.87147,6.01374,Bunderhof, 6418 JZ, Heerlen,https://waarneming.nl/observation/369376862/
"POINT (5.98452 50.94612)",50.94612,5.98452,Heidestraat, 6443 XG, Brunssum,https://waarneming.nl/observation/369345679/
"POINT (5.94242 51.1296)",51.12960,5.94242,Ambt Montfort, 6065 CL, Montfort,https://waarneming.nl/observation/369639407/
"POINT (5.72037 50.83387)",50.83387,5.72037,Henricus van Heerstraat, 6227 RG, Maastricht,https://waarneming.nl/observation/369420807/
"POINT (5.78215 51.04227)",51.04227,5.78215,Julianalaan, 6124 AG, Papenhoven,https://waarneming.nl/observation/369485286/
"POINT (6.05501 50.89956)",50.89956,6.05501,Kennedylaan, 6471 XC, Eygelshoven,https://waarneming.nl/observation/369511305/
"POINT (5.90215 50.99263)",50.99263,5.90215,Johan Ruytersdreef, 6132 TJ, Sittard,https://waarneming.nl/observation/369564990/
"POINT (5.86884 51.00389)",51.00389,5.86884,Doctor Schaepmanstraat, 6136 EV, Sittard,https://waarneming.nl/observation/369529703/
"POINT (5.99306 50.78221)",50.78221,5.99306,Oude Akerweg, 6291 DB, Vaals,https://waarneming.nl/observation/370086334/
"POINT (5.76181 50.97338)",50.97338,5.76181,Holenweg, 6171 CP, Stein,https://waarneming.nl/observation/369555282/
"POINT (5.81939 51.03694)",51.03694,5.81939,Marcus Aurelius, 6121 NX, Born,https://waarneming.nl/observation/369602592/
"POINT (5.69873 50.84869)",50.84869,5.69873,Wycker Grachtstraat, 6221 CW, Maastricht,https://waarneming.nl/observation/369946256/
"POINT (5.94192 51.12967)",51.12967,5.94192,Ambt Montfort, 6065 CL, Montfort,https://waarneming.nl/observation/369544559/
"POINT (5.67565 50.84964)",50.84964,5.67565,Sint Annalaan, 6217 KA, Maastricht,https://waarneming.nl/observation/369948258/
"POINT (5.81167 51.02622)",51.02622,5.81167,Kempstraat, 6121 XX, Born,https://waarneming.nl/observation/369735243/
"POINT (5.91 50.77675)",50.77675,5.91000,Boeienstraat, 6285 AE, Epen,https://waarneming.nl/observation/369698432/
"POINT (5.97628 50.87682)",50.87682,5.97628,Marcus Aureliushof, 6417 TD, Heerlen,https://waarneming.nl/observation/369646619/
"POINT (5.8116 51.02659)",51.02659,5.81160,Kempstraat, 6121 XW, Born,https://waarneming.nl/observation/369734963/
"POINT (5.77448 50.97405)",50.97405,5.77448,Gommerswijk, 6171 BZ, Stein,https://waarneming.nl/observation/369639241/
"POINT (5.70066 51.25035)",51.25035,5.70066,Molenveldstraat, 6001 HJ, Weert,https://waarneming.nl/observation/369674060/
"POINT (5.99205 51.53067)",51.53067,5.99205,Kogeldistel, 5803 HM, Venray,https://waarneming.nl/observation/369690096/
"POINT (5.81031 51.02695)",51.02695,5.81031,Kempstraat, 6121 XX, Born,https://waarneming.nl/observation/369700017/
"POINT (5.77848 50.88706)",50.88706,5.77848,Raar, 6231 RP, Meerssen,https://waarneming.nl/observation/369761812/
"POINT (5.95631 51.03699)",51.03699,5.95631,Dokter Felsweg, 6104 RP, Koningsbosch,https://waarneming.nl/observation/369791121/
"POINT (5.88944 51.74927)",51.74927,5.88944,Mortel, 6585 XG, Mook,https://waarneming.nl/observation/369770341/
"POINT (6.01092 51.18332)",51.18332,6.01092,Beethovenstraat, 6044 PX, Roermond,https://waarneming.nl/observation/369797752/
"POINT (6.01457 50.76843)",50.76843,6.01457,Morettistraat, 6291 XE, Vaals,https://waarneming.nl/observation/369856761/
"POINT (5.93742 50.75843)",50.75843,5.93742,Cottessen, 6294 NE, Vijlen,https://waarneming.nl/observation/369998125/
"POINT (5.99062 50.88167)",50.88167,5.99062,Molenberglaan, 6416 EK, Heerlen,https://waarneming.nl/observation/369889047/
"POINT (5.85623 50.98485)",50.98485,5.85623,Doctor Poelslaan, 6133 XE, Sittard,https://waarneming.nl/observation/369904556/
"POINT (5.77333 50.96775)",50.96775,5.77333,Stadhouderslaan, 6171 KK, Stein,https://waarneming.nl/observation/369927832/
"POINT (5.74389 50.91908)",50.91908,5.74389,Andreas Sauerlaan, 6243 CC, Geulle aan de Maas,https://waarneming.nl/observation/370590332/
"POINT (6.12891 51.37355)",51.37355,6.12891,Klingerbergsingel, 5925 AE, Boekend,https://waarneming.nl/observation/369944398/
"POINT (6.02764 51.41098)",51.41098,6.02764,Staarterstraat, 5975 BX, Sevenum,https://waarneming.nl/observation/369951698/
"POINT (5.73646 50.8572)",50.85720,5.73646,Zichthegge, 6225 KM, Maastricht,https://waarneming.nl/observation/369953733/
"POINT (5.84028 51.01321)",51.01321,5.84028,Pagestraat, 6141 AL, Limbricht,https://waarneming.nl/observation/370005439/
"POINT (5.93885 50.87707)",50.87707,5.93885,Minghof, 6367 BL, Kunrade,https://waarneming.nl/observation/370061069/
"POINT (6.02536 51.45394)",51.45394,6.02536,Speulhofsbaan, 5964 NT, Meterik,https://waarneming.nl/observation/370103200/
"POINT (5.8679 51.0632)",51.06320,5.86790,Buschstraat, 6114 AT, Susteren,https://waarneming.nl/observation/370058565/
"POINT (5.96758 50.94006)",50.94006,5.96758,Sweelinckstraat, 6444 AZ, Brunssum,https://waarneming.nl/observation/370103445/
"POINT (5.85169 51.03518)",51.03518,5.85169,Aan de Linde, 6118 AN, Nieuwstadt,https://waarneming.nl/observation/370111313/
"POINT (6.05061 51.44724)",51.44724,6.05061,Henri Dunantplein, 5961 HK, Horst,https://waarneming.nl/observation/370198265/
"POINT (5.95683 51.03512)",51.03512,5.95683,Dokter Felsweg, 6104 RP, Koningsbosch,https://waarneming.nl/observation/371117517/
"POINT (5.80857 51.03894)",51.03894,5.80857,Leienbergstraat, 6122 AE, Buchten,https://waarneming.nl/observation/370365190/
"POINT (5.99409 50.87678)",50.87678,5.99409,Kaldebornweg, 6416 HC, Heerlen,https://waarneming.nl/observation/370680706/
"POINT (5.85917 51.10087)",51.10087,5.85917,Palmbrugweg, 6101 AH, Echt,https://waarneming.nl/observation/370271255/
"POINT (5.70433 50.78078)",50.78078,5.70433,M.L. Kingstraat, 6245 GG, Mariadorp,https://waarneming.nl/observation/370291922/
"POINT (5.93826 51.33814)",51.33814,5.93826,Meijelseweg, 5986 NJ, Beringe,https://waarneming.nl/observation/370818534/
"POINT (5.8768 51.00807)",51.00807,5.87680,Jan van Ruusbroecstraat, 6136 TB, Sittard,https://waarneming.nl/observation/370683616/
"POINT (5.88064 50.90768)",50.90768,5.88064,Koningsgraven, 6363 BE, Wijnandsrade,https://waarneming.nl/observation/370359136/
"POINT (6.12494 51.37708)",51.37708,6.12494,Vlierboomstraat, 5925 GB, Boekend,https://waarneming.nl/observation/370339625/
"POINT (5.82881 50.90799)",50.90799,5.82881,Struik, 6333 BP, Schimmert,https://waarneming.nl/observation/370343076/
"POINT (5.99382 50.88)",50.88000,5.99382,Johannes XXIII-singel, 6416 GE, Heerlen,https://waarneming.nl/observation/370372973/
"POINT (5.94213 51.12946)",51.12946,5.94213,Ambt Montfort, 6065 CL, Montfort,https://waarneming.nl/observation/370401351/
"POINT (5.85906 51.06202)",51.06202,5.85906,Stationsstraat, 6114 GD, Susteren,https://waarneming.nl/observation/370404089/
"POINT (5.8561 50.99105)",50.99105,5.85610,Kromstraat, 6133 AA, Sittard,https://waarneming.nl/observation/370494004/
"POINT (5.75828 50.88035)",50.88035,5.75828,Geulvoetpad, 6231 RX, Rothem,https://waarneming.nl/observation/370501835/
"POINT (5.8637 50.91356)",50.91356,5.86370,Horenweg, 6361 GG, Nuth,https://waarneming.nl/observation/370588058/
"POINT (5.67986 50.84126)",50.84126,5.67986,Champs Elyseesweg, 6213 AA, Maastricht,https://waarneming.nl/observation/370782901/
"POINT (5.94885 50.93726)",50.93726,5.94885,Marebosjesweg, 6446 AA, Brunssum,https://waarneming.nl/observation/370642258/
"POINT (5.71635 51.26327)",51.26327,5.71635,Paltrokmolen, 6003 CW, Weert,https://waarneming.nl/observation/370666930/
"POINT (5.76869 50.95537)",50.95537,5.76869,Meerdel, 6181 KS, Elsloo,https://waarneming.nl/observation/370684634/
"POINT (5.70517 51.27201)",51.27201,5.70517,Schonkenstraat, 6003 PH, Weert,https://waarneming.nl/observation/370680533/
"POINT (5.87124 50.7997)",50.79970,5.87124,Kampsweg, 6271 PB, Gulpen,https://waarneming.nl/observation/370685388/
"POINT (5.68085 51.25388)",51.25388,5.68085,Oudesteeg, 6002 SG, Weert,https://waarneming.nl/observation/370686655/
"POINT (5.91142 50.94789)",50.94789,5.91142,Mozartstraat, 6438 KN, Oirsbeek,https://waarneming.nl/observation/370697042/
"POINT (5.77107 50.98247)",50.98247,5.77107,Heidekampweg, 6171 AA, Stein,https://waarneming.nl/observation/370759776/
"POINT (5.86213 50.97424)",50.97424,5.86213,Munster, 6151 LG, Munstergeleen,https://waarneming.nl/observation/370766349/
"POINT (5.76816 50.95555)",50.95555,5.76816,Meerdel, 6181 KS, Elsloo,https://waarneming.nl/observation/370797206/
"POINT (5.65531 50.85027)",50.85027,5.65531,Opalinestraat, 6216 VW, Maastricht,https://waarneming.nl/observation/371028178/
"POINT (5.95179 50.9347)",50.93470,5.95179,Zonnestraat, 6446 TE, Brunssum,https://waarneming.nl/observation/370821666/
"POINT (5.68266 50.8284)",50.82840,5.68266,Van Schaikweg, 6212 XM, Maastricht,https://waarneming.nl/observation/370845511/
"POINT (5.65525 50.85069)",50.85069,5.65525,Silexstraat, 6216 XB, Maastricht,https://waarneming.nl/observation/370983673/
"POINT (5.87816 51.10414)",51.10414,5.87816,Prinses Beatrixstraat, 6101 JB, Pey,https://waarneming.nl/observation/370884155/
"POINT (6.18735 51.49421)",51.49421,6.18735,Klein Vink, 5944 EX, Arcen,https://waarneming.nl/observation/370886022/
"POINT (5.71193 50.86838)",50.86838,5.71193,Jeruzalemweg, 6222 NG, Maastricht,https://waarneming.nl/observation/370896497/
"POINT (6.02592 50.86071)",50.86071,6.02592,Lupinestraat, 6466 SG, Kerkrade,https://waarneming.nl/observation/370898672/
"POINT (5.70388 50.8333)",50.83330,5.70388,Sadatdomein, 6229 HS, Maastricht,https://waarneming.nl/observation/371506198/
"POINT (5.72782 50.83943)",50.83943,5.72782,Dorpstraat, 6227 TH, Maastricht,https://waarneming.nl/observation/370939784/
"POINT (5.88806 50.81175)",50.81175,5.88806,Molenweg, 6271 JN, Gulpen,https://waarneming.nl/observation/371001798/
"POINT (5.99942 51.3867)",51.38670,5.99942,Kleefsedijk, 5975 NV, Sevenum,https://waarneming.nl/observation/371030341/
"POINT (5.90202 50.92881)",50.92881,5.90202,Vaesraderweg, 6361 JL, Vaesrade,https://waarneming.nl/observation/371053410/
"POINT (5.85999 51.09994)",51.09994,5.85999,Ophoven, 6101 AH, Echt,https://waarneming.nl/observation/371209337/
"POINT (5.86222 51.10217)",51.10217,5.86222,Lindestraat, 6101 ES, Echt,https://waarneming.nl/observation/371200352/
"POINT (6.09217 51.32935)",51.32935,6.09217,Koningin Julianastraat, 5991 XV, Baarlo,https://waarneming.nl/observation/371109059/
"POINT (6.11077 51.3108)",51.31080,6.11077,Vennekenstraat, 5951 BA, Belfeld,https://waarneming.nl/observation/371132294/
"POINT (5.85874 51.10045)",51.10045,5.85874,Palmbrugweg, 6101 AH, Echt,https://waarneming.nl/observation/371141762/
"POINT (5.85709 51.00807)",51.00807,5.85709,Eisenhowerstraat, 6135 BA, Sittard,https://waarneming.nl/observation/371142116/
"POINT (6.02051 51.19949)",51.19949,6.02051,Hoge Bunder, 6042 NM, Roermond,https://waarneming.nl/observation/371209644/
"POINT (6.07161 50.85516)",50.85516,6.07161,Lodewijkstraat, 6462 BS, Kerkrade,https://waarneming.nl/observation/371315190/
"POINT (5.96623 50.95533)",50.95533,5.96623,Klingbemden, 6441 KR, Brunssum,https://waarneming.nl/observation/371324187/
"POINT (5.86389 51.14624)",51.14624,5.86389,Visvijverpad, 6107 XZ, Maasbracht,https://waarneming.nl/observation/371265238/
"POINT (5.73834 51.25553)",51.25553,5.73834,Belle van Zuylenhof, 6004 SK, Weert,https://waarneming.nl/observation/371267605/
"POINT (5.90217 50.9929)",50.99290,5.90217,Johan Ruytersdreef, 6132 TJ, Sittard,https://waarneming.nl/observation/371351606/
"POINT (5.82432 50.9031)",50.90310,5.82432,Hoofdstraat, 6333 BE, Schimmert,https://waarneming.nl/observation/371324909/
"POINT (5.98637 51.18324)",51.18324,5.98637,Hattem, 6041 SC, Roermond,https://waarneming.nl/observation/371327682/
"POINT (5.72048 51.19381)",51.19381,5.72048,Prinses Beatrixstraat, 6039 CG, Stramproy,https://waarneming.nl/observation/371368107/
"POINT (5.84172 51.07368)",51.07368,5.84172,Maaseikerweg, 6114 JX, Dieteren,https://waarneming.nl/observation/371418179/
"POINT (6.08166 51.51145)",51.51145,6.08166,van Myrlaerstraat, 5864 BN, Meerlo,https://waarneming.nl/observation/371408086/
"POINT (5.74333 50.88545)",50.88545,5.74333,Vriendenhofpad, 6231 EC, Rothem,https://waarneming.nl/observation/371460688/
"POINT (6.06533 50.85933)",50.85933,6.06533,Domaniale Mijnstraat, 6462 HA, Kerkrade,https://waarneming.nl/observation/371581513/
"POINT (5.67224 50.85162)",50.85162,5.67224,Holsteinbastion, 6217 LH, Maastricht,https://waarneming.nl/observation/371500171/
"POINT (6.06573 50.85967)",50.85967,6.06573,Nullanderstraat, 6461 GC, Kerkrade,https://waarneming.nl/observation/371499502/
"POINT (5.88836 50.9993)",50.99930,5.88836,Burgemeester Schrijenstraat, 6137 RP, Sittard,https://waarneming.nl/observation/371579584/
"POINT (5.95882 51.24579)",51.24579,5.95882,Kampweg, 6083 BH, Nunhem,https://waarneming.nl/observation/371525360/
"POINT (5.76321 50.79714)",50.79714,5.76321,Nieuwe Hofstraat, 6265 AG, Sint Geertruid,https://waarneming.nl/observation/371547645/
"POINT (5.7626 50.79737)",50.79737,5.76260,Achter de Höfkens, 6265 AB, Sint Geertruid,https://waarneming.nl/observation/371548071/
"POINT (5.72139 51.26335)",51.26335,5.72139,Scheepsbouwkade, 6001 AD, Weert,https://waarneming.nl/observation/371535475/
"POINT (5.83957 51.01301)",51.01301,5.83957,Pagestraat, 6141 AL, Limbricht,https://waarneming.nl/observation/371660128/
"POINT (5.70501 50.82526)",50.82526,5.70501,Aan het Heugemerwater, 6229 XG, Maastricht,https://waarneming.nl/observation/371576432/
"POINT (5.71983 51.26294)",51.26294,5.71983,Scheepsbouwkade, 6001 AD, Weert,https://waarneming.nl/observation/371613627/
"POINT (5.93096 50.9726)",50.97260,5.93096,Winkelpaadje, 6456 AS, Bingelrade,https://waarneming.nl/observation/371622314/
"POINT (5.72268 50.82558)",50.82558,5.72268,Welsdaal, 6228 JK, Maastricht,https://waarneming.nl/observation/371626923/
"POINT (5.72283 50.82581)",50.82581,5.72283,Welsdaal, 6228 JK, Maastricht,https://waarneming.nl/observation/371627593/
"POINT (6.1191 51.32721)",51.32721,6.11910,Waterloostraat, 5935 CK, Steyl,https://waarneming.nl/observation/372355102/
"POINT (5.91808 50.93416)",50.93416,5.91808,Hommerterweg, 6436 AK, Amstenrade,https://waarneming.nl/observation/371707395/
"POINT (6.11956 51.32799)",51.32799,6.11956,Waterloostraat, 5935 CK, Steyl,https://waarneming.nl/observation/371715519/
"POINT (6.03528 50.86631)",50.86631,6.03528,De Lingestraat, 6467 BK, Kerkrade,https://waarneming.nl/observation/371721353/
"POINT (5.8615 50.99547)",50.99547,5.86150,Kleine Steeg, 6131 KJ, Sittard,https://waarneming.nl/observation/371732185/
"POINT (5.97851 50.86268)",50.86268,5.97851,Benzenrade, 6419 PG, Heerlen,https://waarneming.nl/observation/371747585/
"POINT (5.86826 51.03756)",51.03756,5.86826,Burgemeester F.A. Cortenplein, 6118 GA, Nieuwstadt,https://waarneming.nl/observation/371767118/
"POINT (5.83112 50.95899)",50.95899,5.83112,Kochstraat, 6164 HB, Geleen,https://waarneming.nl/observation/371850968/
"POINT (5.77955 51.03887)",51.03887,5.77955,Merovingenstraat, 6124 AB, Papenhoven,https://waarneming.nl/observation/371823900/
"POINT (5.98107 50.89444)",50.89444,5.98107,Oude Kerkstraat, 6412 XJ, Heerlen,https://waarneming.nl/observation/371833019/
"POINT (5.94369 51.20703)",51.20703,5.94369,Eindstraat, 6085 AE, Horn,https://waarneming.nl/observation/371879892/
"POINT (5.90245 50.92869)",50.92869,5.90245,Vaesraderweg, 6361 JL, Vaesrade,https://waarneming.nl/observation/371874056/
"POINT (5.7393 50.793)",50.79300,5.73930,De Dommel, 6247 DZ, Eijsden,https://waarneming.nl/observation/372137396/
"POINT (5.99475 51.19745)",51.19745,5.99475,Ernst Casimirstraat, 6041 CC, Roermond,https://waarneming.nl/observation/371892343/
"POINT (5.78976 50.78414)",50.78414,5.78976,Duivenstraat, 6261 NV, Mheer,https://waarneming.nl/observation/371903282/
"POINT (5.69369 50.85322)",50.85322,5.69369,Van Hasseltkade, 6211 CC, Maastricht,https://waarneming.nl/observation/372053578/
"POINT (5.87145 50.99103)",50.99103,5.87145,Charles Beltjenslaan, 6132 AG, Sittard,https://waarneming.nl/observation/371947091/
"POINT (5.70578 51.24503)",51.24503,5.70578,Victor de Stuersstraat, 6006 BH, Weert,https://waarneming.nl/observation/371971137/
"POINT (5.83629 51.16738)",51.16738,5.83629,Luiksestraat, 6017 CC, Thorn,https://waarneming.nl/observation/372010783/
"POINT (5.84951 50.95228)",50.95228,5.84951,Bergstraat, 6174 RP, Sweikhuizen,https://waarneming.nl/observation/372442181/
"POINT (5.68586 51.26056)",51.26056,5.68586,Vrakkerstraat, 6002 AT, Weert,https://waarneming.nl/observation/371992571/
"POINT (5.87778 51.16562)",51.16562,5.87778,Op de Brakerhoef, 6019 CV, Wessem,https://waarneming.nl/observation/372016336/
"POINT (5.71792 51.24015)",51.24015,5.71792,Maaseikerweg, 6005 AC, Weert,https://waarneming.nl/observation/372200825/
"POINT (5.97385 51.31964)",51.31964,5.97385,Raadhuisstraat, 5987 AX, Egchel,https://waarneming.nl/observation/372029125/
"POINT (6.17977 51.37204)",51.37204,6.17977,Hoogmolenweg, 5913 AS, Blerick,https://waarneming.nl/observation/372051472/
"POINT (5.87857 50.98653)",50.98653,5.87857,Achterste Tomel, 6132 AX, Sittard,https://waarneming.nl/observation/372058181/
"POINT (5.86683 51.03724)",51.03724,5.86683,Markies de Schenkweg, 6118 EG, Nieuwstadt,https://waarneming.nl/observation/372055160/
"POINT (5.97428 50.83892)",50.83892,5.97428,Bouwensstraat, 6369 BG, Simpelveld,https://waarneming.nl/observation/372119985/
"POINT (6.18424 51.3776)",51.37760,6.18424,Albert Cuypstraat, 5914 XL, Blerick,https://waarneming.nl/observation/372175646/
"POINT (6.11014 51.30953)",51.30953,6.11014,Vennekenstraat, 5951 BA, Belfeld,https://waarneming.nl/observation/372175789/
"POINT (6.20915 51.3809)",51.38090,6.20915,Negen-novemberweg, 5916 LD, Venlo,https://waarneming.nl/observation/372119285/
"POINT (5.94193 51.2105)",51.21050,5.94193,Molenweg, 6085 CK, Horn,https://waarneming.nl/observation/372123623/
"POINT (5.98798 51.32416)",51.32416,5.98798,Burgemeester Verhaeghstraat, 5981 DG, Panningen,https://waarneming.nl/observation/372176215/
"POINT (5.71153 50.86847)",50.86847,5.71153,Judeaweg, 6222 BT, Maastricht,https://waarneming.nl/observation/372137165/
"POINT (5.91041 50.93153)",50.93153,5.91041,Anthemiahof, 6361 JP, Vaesrade,https://waarneming.nl/observation/372181482/
"POINT (5.76332 51.2173)",51.21730,5.76332,Hulsweg, 6005 PL, Weert,https://waarneming.nl/observation/372187174/
"POINT (6.09006 51.28468)",51.28468,6.09006,Amerslosestraat, 5953 KX, Reuver,https://waarneming.nl/observation/372492392/
"POINT (5.96582 50.92388)",50.92388,5.96582,Rozestraat, 6414 PC, Heerlen,https://waarneming.nl/observation/372308310/
"POINT (5.72197 51.26388)",51.26388,5.72197,Scheepsbouwkade, 6001 AD, Weert,https://waarneming.nl/observation/372246103/
"POINT (5.82178 50.8932)",50.89320,5.82178,Groot-Haasdal, 6333 AW, Schimmert,https://waarneming.nl/observation/372290147/
"POINT (5.83443 50.89275)",50.89275,5.83443,Boschstraat, 6333 AX, Hulsberg,https://waarneming.nl/observation/372287047/
"POINT (5.84719 50.97689)",50.97689,5.84719,Exelsboom, 6166 KB, Geleen,https://waarneming.nl/observation/372317201/
"POINT (6.05855 51.45631)",51.45631,6.05855,Van Blitterswijckstraat, 5961 ST, Horst,https://waarneming.nl/observation/372310467/
"POINT (5.83912 51.00911)",51.00911,5.83912,Lintjeshaag, 6141 MB, Limbricht,https://waarneming.nl/observation/372339059/
"POINT (5.77842 50.9519)",50.95190,5.77842,Eeckersteghe, 6181 KZ, Catsop,https://waarneming.nl/observation/372334687/
"POINT (5.69309 50.85324)",50.85324,5.69309,Raamstraat, 6211 BM, Maastricht,https://waarneming.nl/observation/372344444/
"POINT (5.97475 50.89233)",50.89233,5.97475,Aurora, 6412 GH, Heerlen,https://waarneming.nl/observation/372396773/
"POINT (5.99751 50.77967)",50.77967,5.99751,Oude Akerweg, 6291 DB, Vaals,https://waarneming.nl/observation/372387086/
"POINT (5.73966 50.79277)",50.79277,5.73966,De Dommel, 6247 DZ, Eijsden,https://waarneming.nl/observation/372435294/
"POINT (5.99606 50.78034)",50.78034,5.99606,Oude Akerweg, 6291 DB, Vaals,https://waarneming.nl/observation/372393549/
"POINT (5.81666 50.89205)",50.89205,5.81666,Nieuwstraat, 6333 AS, Schimmert,https://waarneming.nl/observation/372440997/
"POINT (5.98674 50.8825)",50.88250,5.98674,Sint Franciscusweg, 6416 ET, Heerlen,https://waarneming.nl/observation/372451149/
"POINT (5.95757 51.12512)",51.12512,5.95757,Hoogstraat, 6065 BB, Montfort,https://waarneming.nl/observation/372482516/
"POINT (6.00271 50.7606)",50.76060,6.00271,Schuttebergsweg, 6291 NG, Vaals,https://waarneming.nl/observation/372520621/
"POINT (5.83107 50.95923)",50.95923,5.83107,Kochstraat, 6164 HB, Geleen,https://waarneming.nl/observation/372521092/
"POINT (6.02514 50.90127)",50.90127,6.02514,Op de Heugden, 6371 LX, Landgraaf,https://waarneming.nl/observation/372534657/
"POINT (5.82052 50.89067)",50.89067,5.82052,Groot-Haasdal, 6333 AV, Schimmert,https://waarneming.nl/observation/372542223/
"POINT (5.9995 51.18084)",51.18084,5.99950,Herkenbosscherweg, 6045 AP, Roermond,https://waarneming.nl/observation/372564743/
"POINT (5.78065 50.95)",50.95000,5.78065,Van Oldenbarneveldtstraat, 6181 BC, Catsop,https://waarneming.nl/observation/372571417/
"POINT (5.78611 50.92838)",50.92838,5.78611,Geverikerstraat, 6191 RP, Geverik,https://waarneming.nl/observation/372581377/
"POINT (5.867 50.99821)",50.99821,5.86700,Walstraat, 6131 CV, Sittard,https://waarneming.nl/observation/372637326/
"POINT (6.04179 51.41209)",51.41209,6.04179,Van Stepraethstraat, 5975 XR, Sevenum,https://waarneming.nl/observation/372892662/
"POINT (5.7779 50.98808)",50.98808,5.77790,Mauritslaan, 6129 EN, Urmond,https://waarneming.nl/observation/372720662/
"POINT (5.88082 51.77441)",51.77441,5.88082,De Bongerd, 6584 DH, Molenhoek,https://waarneming.nl/observation/372655155/
"POINT (5.74797 50.92934)",50.92934,5.74797,Broekhoven, 6243 BC, Geulle aan de Maas,https://waarneming.nl/observation/372665038/
"POINT (5.90775 51.09164)",51.09164,5.90775,Brugweg, 6102 TH, Hingen,https://waarneming.nl/observation/372710261/
"POINT (5.81522 50.87161)",50.87161,5.81522,Broekhem, 6301 HL, Houthem,https://waarneming.nl/observation/372712923/
"POINT (5.72666 50.95929)",50.95929,5.72666,Pontgatsvoetpad, 6181 PA, Meers,https://waarneming.nl/observation/372892703/
"POINT (6.19855 51.35874)",51.35874,6.19855,Postweg, 5913 PD, Venlo,https://waarneming.nl/observation/372785173/
"POINT (6.02439 50.90106)",50.90106,6.02439,Koningstraat, 6371 LX, Landgraaf,https://waarneming.nl/observation/373054772/
"POINT (6.20268 51.35513)",51.35513,6.20268,Beckersweg, 5915 PB, Venlo,https://waarneming.nl/observation/372808664/
"POINT (6.1889 51.3757)",51.37570,6.18890,Schaapsdijkweg, 5913 GM, Blerick,https://waarneming.nl/observation/372840918/
"POINT (5.91104 50.82445)",50.82445,5.91104,Piepertbroekweg, 6286 NA, Eys,https://waarneming.nl/observation/372889341/
"POINT (6.03591 51.41233)",51.41233,6.03591,Markt, 5975 AM, Sevenum,https://waarneming.nl/observation/372891958/
"POINT (5.83047 51.02149)",51.02149,5.83047,Limbrichterweg, 6141 BJ, Born,https://waarneming.nl/observation/372917222/
"POINT (5.83877 51.01712)",51.01712,5.83877,Michiels van Kessenichstraat, 6141 AX, Limbricht,https://waarneming.nl/observation/372904994/
"POINT (6.13018 51.34252)",51.34252,6.13018,Agrimonie, 5931 ST, Tegelen,https://waarneming.nl/observation/372915364/
"POINT (6.03636 51.41007)",51.41007,6.03636,Maasbreeseweg, 5975 BN, Sevenum,https://waarneming.nl/observation/372918392/
"POINT (5.82945 50.99899)",50.99899,5.82945,Meerveld, 6142 BZ, Einighausen,https://waarneming.nl/observation/372988439/
"POINT (5.88157 50.91999)",50.91999,5.88157,Platsmolenweg, 6361 EM, Nuth,https://waarneming.nl/observation/373067741/
"POINT (5.88084 50.83887)",50.83887,5.88084,Kerkpad, 6321 PD, Wijlre,https://waarneming.nl/observation/372992776/
"POINT (5.87581 50.92003)",50.92003,5.87581,Nierhoven, 6361 GP, Nuth,https://waarneming.nl/observation/373067040/
"POINT (5.90016 50.99482)",50.99482,5.90016,Haagsittard, 6132 HR, Sittard,https://waarneming.nl/observation/372963025/
"POINT (5.83876 50.97235)",50.97235,5.83876,Meijsstraat, 6166 EA, Geleen,https://waarneming.nl/observation/372967449/
"POINT (5.78 51.18695)",51.18695,5.78000,Koekoekstraat, 6012 RS, Haler,https://waarneming.nl/observation/372986641/
"POINT (5.86727 51.12152)",51.12152,5.86727,Breulderweg, 6101 XZ, Echt,https://waarneming.nl/observation/372989563/
"POINT (6.09951 51.27994)",51.27994,6.09951,Keulseweg, 5953 HJ, Reuver,https://waarneming.nl/observation/372989088/
"POINT (5.96688 50.87327)",50.87327,5.96688,De Mullender, 6419 EZ, Heerlen,https://waarneming.nl/observation/372995195/
"POINT (5.85543 51.03275)",51.03275,5.85543,Aan de Bogen, 6118 AS, Nieuwstadt,https://waarneming.nl/observation/373005045/
"POINT (5.9901 50.88156)",50.88156,5.99010,Molenberglaan, 6416 EK, Heerlen,https://waarneming.nl/observation/373033575/
"POINT (5.72452 50.84771)",50.84771,5.72452,Wethouder van Caldenborghlaan, 6226 BS, Maastricht,https://waarneming.nl/observation/373127900/
"POINT (5.75512 50.83667)",50.83667,5.75512,Bakkerboschweg, 6267 AJ, Cadier en Keer,https://waarneming.nl/observation/373080209/
"POINT (5.72913 50.83757)",50.83757,5.72913,Kerkhofweg, 6227 TG, Maastricht,https://waarneming.nl/observation/373255893/
"POINT (5.98071 51.33182)",51.33182,5.98071,Graafschap Kesselstraat, 5981 XT, Panningen,https://waarneming.nl/observation/375858149/
"POINT (5.73391 50.86363)",50.86363,5.73391,Beukenhoven, 6225 GR, Maastricht,https://waarneming.nl/observation/373128592/
"POINT (6.01873 50.76998)",50.76998,6.01873,Von Clermontplein, 6291 AV, Vaals,https://waarneming.nl/observation/373219483/
"POINT (5.89887 51.09323)",51.09323,5.89887,Dorpstraat, 6102 TZ, Hingen,https://waarneming.nl/observation/373182756/
"POINT (5.71564 51.28028)",51.28028,5.71564,Sint Sebastiaanskapelstraat, 6003 NT, Weert,https://waarneming.nl/observation/373290881/
"POINT (5.89632 51.14836)",51.14836,5.89632,Kloosterstraat, 6051 JB, Brachterbeek,https://waarneming.nl/observation/374295012/
"POINT (5.98234 50.88963)",50.88963,5.98234,Klompstraat, 6411 KR, Heerlen,https://waarneming.nl/observation/373229094/
"POINT (6.12887 51.31531)",51.31531,6.12887,Soersbeekweg, 5951 HA, Belfeld,https://waarneming.nl/observation/373264934/
"POINT (5.71426 51.25848)",51.25848,5.71426,Kloosterstraat, 6001 XS, Weert,https://waarneming.nl/observation/375309034/
"POINT (5.88562 50.90632)",50.90632,5.88562,Deckersstraat, 6363 EB, Wijnandsrade,https://waarneming.nl/observation/373358078/
"POINT (5.98274 50.88932)",50.88932,5.98274,Klompstraat, 6411 KR, Heerlen,https://waarneming.nl/observation/373447443/
"POINT (5.88294 51.74723)",51.74723,5.88294,Violenstraatje, 6585 BA, Mook,https://waarneming.nl/observation/373409307/
"POINT (6.03843 51.40107)",51.40107,6.03843,Lemmeweg, 5975 PM, Sevenum,https://waarneming.nl/observation/373448502/
"POINT (5.94115 51.1336)",51.13360,5.94115,Stationsweg, 6065 EH, Montfort,https://waarneming.nl/observation/373457515/
"POINT (5.86736 51.03695)",51.03695,5.86736,Klisweg, 6118 GM, Nieuwstadt,https://waarneming.nl/observation/373467956/
"POINT (5.89908 51.17718)",51.17718,5.89908,Bongerdpad, 6097 AC, Heel,https://waarneming.nl/observation/373487899/
"POINT (5.93668 50.75869)",50.75869,5.93668,Cottessen, 6294 NE, Vijlen,https://waarneming.nl/observation/373906101/
"POINT (6.0491 51.47005)",51.47005,6.04910,Venrayseweg, 5961 NS, Horst,https://waarneming.nl/observation/373519222/
"POINT (5.86487 51.14672)",51.14672,5.86487,Visvijverpad, 6107 XZ, Maasbracht,https://waarneming.nl/observation/373726593/
"POINT (5.71588 50.77703)",50.77703,5.71588,Meikers, 6245 PS, Mariadorp,https://waarneming.nl/observation/373666389/
"POINT (5.72565 50.96186)",50.96186,5.72565,Pontgatsvoetpad, 6181 PA, Meers,https://waarneming.nl/observation/373577816/
"POINT (6.19788 51.37181)",51.37181,6.19788,Schaapsdijkweg, 5913 PB, Venlo,https://waarneming.nl/observation/373551569/
"POINT (5.73436 50.79863)",50.79863,5.73436,Romboutsweg, 6247 EE, Rijckholt,https://waarneming.nl/observation/373920862/
"POINT (5.97659 51.17796)",51.17796,5.97659,Zwanenzetel, 6041 PH, Roermond,https://waarneming.nl/observation/373601872/
"POINT (6.1838 51.37749)",51.37749,6.18380,Albert Cuypstraat, 5914 XE, Blerick,https://waarneming.nl/observation/373659217/
"POINT (6.04303 51.36101)",51.36101,6.04303,Heierveldlaan, 5993 GD, Maasbree,https://waarneming.nl/observation/373894372/
"POINT (5.93142 51.26586)",51.26586,5.93142,Neerderweg, 6088 BD, Roggel,https://waarneming.nl/observation/373698090/
"POINT (6.0281 50.9041)",50.90410,6.02810,Dorpstraat, 6373 JC, Landgraaf,https://waarneming.nl/observation/373709759/
"POINT (5.86478 51.00202)",51.00202,5.86478,Overhovenerstraat, 6131 BX, Sittard,https://waarneming.nl/observation/373770891/
"POINT (5.86625 50.98558)",50.98558,5.86625,Broekpad, 6133 BW, Sittard,https://waarneming.nl/observation/373791755/
"POINT (5.9711 50.87896)",50.87896,5.97110,Welterlaan, 6419 CN, Heerlen,https://waarneming.nl/observation/373883955/
"POINT (5.65414 50.8473)",50.84730,5.65414,Heserstraat, 6216 TP, Maastricht,https://waarneming.nl/observation/374471622/
"POINT (5.72342 51.19805)",51.19805,5.72342,Vloedmolenweg, 6039 RX, Stramproy,https://waarneming.nl/observation/373844842/
"POINT (5.69952 50.81949)",50.81949,5.69952,Hoge Kanaaldijk, 6212 NA, Maastricht,https://waarneming.nl/observation/373945715/
"POINT (5.87889 51.16971)",51.16971,5.87889,Aan het Kanaal, 6019 RH, Wessem,https://waarneming.nl/observation/373894129/
"POINT (5.77766 50.90434)",50.90434,5.77766,Groot Berghem, 6235 BK, Ulestraten,https://waarneming.nl/observation/373906098/
"POINT (6.14818 51.44802)",51.44802,6.14818,Houthuizerweg, 5973 RG, Lottum,https://waarneming.nl/observation/373939026/
"POINT (5.6758 50.85498)",50.85498,5.67580,Mariabastion, 6217 NB, Maastricht,https://waarneming.nl/observation/373978734/
"POINT (5.66198 50.8499)",50.84990,5.66198,Porseleinstraat, 6216 BP, Maastricht,https://waarneming.nl/observation/373954163/
"POINT (5.6484 50.84137)",50.84137,5.64840,Cassiushof, 6215 GK, Maastricht,https://waarneming.nl/observation/373978075/
"POINT (5.99479 50.86717)",50.86717,5.99479,Doctor Clemens Meulemanstraat, 6418 PC, Heerlen,https://waarneming.nl/observation/373960992/
"POINT (5.87822 51.0001)",51.00010,5.87822,Charles Vosstraat, 6137 AT, Sittard,https://waarneming.nl/observation/373986387/
"POINT (5.95961 50.87898)",50.87898,5.95961,Valkenburgerweg, 6419 AT, Heerlen,https://waarneming.nl/observation/374059379/
"POINT (5.89496 51.24767)",51.24767,5.89496,Oude Trambaan, 6093 CD, Heythuysen,https://waarneming.nl/observation/374032802/
"POINT (5.96687 50.87369)",50.87369,5.96687,Weltertuijnstraat, 6419 XD, Heerlen,https://waarneming.nl/observation/374025972/
"POINT (5.7774 50.90488)",50.90488,5.77740,Groot Berghem, 6235 BL, Ulestraten,https://waarneming.nl/observation/374589037/
"POINT (5.98952 50.87453)",50.87453,5.98952,Hagedoornstraat, 6417 AP, Heerlen,https://waarneming.nl/observation/374048002/
"POINT (6.00841 51.25053)",51.25053,6.00841,Wienerte, 6086 NE, Neer,https://waarneming.nl/observation/374428527/
"POINT (5.83027 50.96204)",50.96204,5.83027,Vinkenstraat, 6165 TC, Geleen,https://waarneming.nl/observation/374078362/
"POINT (5.95363 51.21733)",51.21733,5.95363,Peter Schreursweg, 6081 PE, Haelen,https://waarneming.nl/observation/374095919/
"POINT (6.16926 51.37756)",51.37756,6.16926,Doctor Marie Curiestraat, 5914 CN, Blerick,https://waarneming.nl/observation/374165358/
"POINT (5.99716 51.53692)",51.53692,5.99716,Zilverschoon, 5803 MA, Venray,https://waarneming.nl/observation/374464640/
"POINT (5.93191 50.78289)",50.78289,5.93191,Fokkebroekweg, 6281 PA, Mechelen,https://waarneming.nl/observation/374292965/
"POINT (5.9411 50.87779)",50.87779,5.94110,Cartilsstraat, 6367 DD, Kunrade,https://waarneming.nl/observation/374510359/
"POINT (6.19738 51.37169)",51.37169,6.19738,Schaapsdijkweg, 5913 PB, Venlo,https://waarneming.nl/observation/374395893/
"POINT (6.11549 51.32108)",51.32108,6.11549,Aan de Stuw, 5951 AA, Belfeld,https://waarneming.nl/observation/374650696/
"POINT (5.73954 50.96187)",50.96187,5.73954,Schoolsteeg, 6181 NM, Meers,https://waarneming.nl/observation/374456803/
"POINT (5.94048 50.878)",50.87800,5.94048,Lijndenplein, 6367 DC, Kunrade,https://waarneming.nl/observation/374488384/
"POINT (5.79117 50.78169)",50.78169,5.79117,Duivenstraat, 6261 NV, Mheer,https://waarneming.nl/observation/374468157/
"POINT (5.68042 50.84131)",50.84131,5.68042,Champs Elyseesweg, 6213 AA, Maastricht,https://waarneming.nl/observation/374490426/
"POINT (5.83069 50.96205)",50.96205,5.83069,Vinkenstraat, 6165 TC, Geleen,https://waarneming.nl/observation/374500566/
"POINT (5.69388 50.8376)",50.83760,5.69388,Bergweg, 6212 CX, Maastricht,https://waarneming.nl/observation/374512157/
"POINT (5.97135 51.1964)",51.19640,5.97135,Hatenboer, 6041 TN, Roermond,https://waarneming.nl/observation/374521898/
"POINT (6.01156 51.20729)",51.20729,6.01156,Bob Boumanstraat, 6042 EH, Roermond,https://waarneming.nl/observation/374535196/
"POINT (5.78451 51.02645)",51.02645,5.78451,Hitsberg, 6125 RB, Obbicht,https://waarneming.nl/observation/374523888/
"POINT (5.67002 50.85284)",50.85284,5.67002,Bilserbaan, 6217 JG, Maastricht,https://waarneming.nl/observation/374768071/
"POINT (5.88158 50.87513)",50.87513,5.88158,Grubbenweg, 6343 CA, Termaar,https://waarneming.nl/observation/374589101/
"POINT (5.73131 51.21232)",51.21232,5.73131,Jean Amentstraat, 6005 RM, Weert,https://waarneming.nl/observation/374601102/
"POINT (5.96237 50.93248)",50.93248,5.96237,Wieënweg, 6443 EJ, Brunssum,https://waarneming.nl/observation/374611364/
"POINT (5.75145 50.96087)",50.96087,5.75145,Weg van Elsloo naar Groot Meers, 6171 GV, Stein,https://waarneming.nl/observation/374606477/
"POINT (6.08619 51.57015)",51.57015,6.08619,Bosserheide, 5855 EB, Well,https://waarneming.nl/observation/374639235/
"POINT (5.76123 50.79247)",50.79247,5.76123,Eindstraat, 6265 AD, Sint Geertruid,https://waarneming.nl/observation/374648187/
"POINT (5.8613 51.03744)",51.03744,5.86130,Haverterstraat, 6118 CD, Nieuwstadt,https://waarneming.nl/observation/374695793/
"POINT (5.6753 50.85522)",50.85522,5.67530,Mariabastion, 6217 NC, Maastricht,https://waarneming.nl/observation/374763896/
"POINT (5.75407 51.28898)",51.28898,5.75407,Alexiastraat, 6031 DD, Budschop,https://waarneming.nl/observation/374785944/
"POINT (5.67396 51.25338)",51.25338,5.67396,Oudesteeg, 6002 SH, Weert,https://waarneming.nl/observation/374946409/
"POINT (5.84432 50.97203)",50.97203,5.84432,Bosbeek, 6166 GA, Geleen,https://waarneming.nl/observation/374801157/
"POINT (5.83863 51.00917)",51.00917,5.83863,Lintjeshaag, 6141 MB, Limbricht,https://waarneming.nl/observation/374841598/
"POINT (5.88747 50.81098)",50.81098,5.88747,Pesaken, 6271 NT, Gulpen,https://waarneming.nl/observation/374808770/
"POINT (5.74686 50.93007)",50.93007,5.74686,Broekhoven, 6243 BC, Geulle aan de Maas,https://waarneming.nl/observation/374795312/
"POINT (6.04542 51.35355)",51.35355,6.04542,Oude Heldenseweg, 5993 RA, Maasbree,https://waarneming.nl/observation/374825671/
"POINT (6.00481 51.19505)",51.19505,6.00481,Lindelaan, 6042 GK, Roermond,https://waarneming.nl/observation/374856823/
"POINT (5.77848 51.21473)",51.21473,5.77848,Wetselderstraat, 6011 SM, Ell,https://waarneming.nl/observation/374881337/
"POINT (6.04353 51.36096)",51.36096,6.04353,Heierveldlaan, 5993 GD, Maasbree,https://waarneming.nl/observation/374874267/
"POINT (6.02141 51.12893)",51.12893,6.02141,Roermondseweg, 6061 GC, Posterholt,https://waarneming.nl/observation/374889080/
"POINT (5.90751 51.24202)",51.24202,5.90751,Aan de Watermolen, 6093 NB, Heythuysen,https://waarneming.nl/observation/374895393/
"POINT (5.68577 50.85128)",50.85128,5.68577,Capucijnenstraat, 6211 RT, Maastricht,https://waarneming.nl/observation/375148577/
"POINT (6.17281 51.38011)",51.38011,6.17281,Meeuwbeemdweg, 5914 PZ, Blerick,https://waarneming.nl/observation/374907321/
"POINT (5.93487 50.92267)",50.92267,5.93487,Terveurdtweg, 6431 VR, Heerlen,https://waarneming.nl/observation/375131184/
"POINT (5.65965 50.85867)",50.85867,5.65965,Hersintlaan, 6217 AR, Maastricht,https://waarneming.nl/observation/374971378/
"POINT (6.05346 50.89332)",50.89332,6.05346,Schweitzerstraat, 6471 KK, Eygelshoven,https://waarneming.nl/observation/374969639/
"POINT (6.02496 50.86589)",50.86589,6.02496,Firenschatstraat, 6467 CR, Kerkrade,https://waarneming.nl/observation/375347325/
"POINT (5.67292 50.85337)",50.85337,5.67292,Bastionstraat, 6217 LP, Maastricht,https://waarneming.nl/observation/375154316/
"POINT (6.15036 51.3701)",51.37010,6.15036,Sint Norbertusstraat, 5921 HJ, Blerick,https://waarneming.nl/observation/375099869/
"POINT (5.69501 50.86354)",50.86354,5.69501,Everstraat, 6219 BT, Maastricht,https://waarneming.nl/observation/375047451/
"POINT (5.72964 50.86387)",50.86387,5.72964,Severenplein, 6225 AX, Maastricht,https://waarneming.nl/observation/375150021/
"POINT (5.88492 51.01176)",51.01176,5.88492,Sportcentrumlaan, 6136 VG, Sittard,https://waarneming.nl/observation/375069764/
"POINT (5.66913 50.8383)",50.83830,5.66913,Aramislaan, 6213 BV, Maastricht,https://waarneming.nl/observation/375155826/
"POINT (6.03624 51.2257)",51.22570,6.03624,Van Hoensbroekstraat, 6071 CN, Boukoul,https://waarneming.nl/observation/375122378/
"POINT (5.65017 50.83684)",50.83684,5.65017,Numitorhof, 6215 SC, Maastricht,https://waarneming.nl/observation/375146567/
"POINT (5.88346 50.97097)",50.97097,5.88346,Hoddelsley, 6153 AA, Sittard-Geleen,https://waarneming.nl/observation/375149926/
"POINT (5.87212 50.97601)",50.97601,5.87212,Gelrestraat, 6151 JA, Munstergeleen,https://waarneming.nl/observation/377365145/
"POINT (5.69908 51.24631)",51.24631,5.69908,Blekerstraat, 6006 NV, Weert,https://waarneming.nl/observation/375178970/
"POINT (6.07554 51.55128)",51.55128,6.07554,Elsteren, 5855 AS, Well,https://waarneming.nl/observation/375167601/
"POINT (5.88292 51.22996)",51.22996,5.88292,De Briasweg, 6095 CK, Baexem,https://waarneming.nl/observation/375172562/
"POINT (5.84635 51.14946)",51.14946,5.84635,Aan De Maas, 3640, Kessenich,https://waarneming.nl/observation/375568027/
"POINT (5.88614 51.00337)",51.00337,5.88614,Burgemeester Corbeijstraat, 6137 XS, Sittard,https://waarneming.nl/observation/375583420/
"POINT (6.04505 51.23608)",51.23608,6.04505,Hertogdom Gelresingel, 6071 XM, Swalmen,https://waarneming.nl/observation/375253656/
"POINT (6.04826 51.23634)",51.23634,6.04826,Molenweg, 6071 VZ, Swalmen,https://waarneming.nl/observation/375256609/
"POINT (5.6769 50.84285)",50.84285,5.67690,Sint Theresiaplein, 6213 CG, Maastricht,https://waarneming.nl/observation/375338680/
"POINT (5.94865 51.26693)",51.26693,5.94865,Ophoven, 6088 AG, Roggel,https://waarneming.nl/observation/375272856/
"POINT (5.95648 50.94518)",50.94518,5.95648,Ridder Walramstraat, 6444 HP, Brunssum,https://waarneming.nl/observation/375275548/
"POINT (5.8528 51.06858)",51.06858,5.85280,Gulickspark, 6114 ML, Dieteren,https://waarneming.nl/observation/375315464/
"POINT (5.87642 51.02377)",51.02377,5.87642,Millenerweg, 6136 KJ, Sittard,https://waarneming.nl/observation/376575413/
